[2024-05-09 17:17:33.999288] $GPRMC,173621.00,V,,,,,,,090524,$GPRMC,173621.00,V,,,,,,,090524,$GPRMC,173621.00,V,,,,,,,090524,$GPRMC,173621.00,V,,,,,,,090524,$GPRMC,173621.00,V,,,,,,,090524,$GPRMC,173621.00,V,,,,,,,090524,$GPRMC,173621.00,V,,,,,,,090524,$GPRMC,173621.00,V,,,,,,,090524,$GPRMC,173621.00,V,,,,,,,090524,$GPRMC,173621.00,V,,,,,,,090524,$GPRMC,173621.00,V,,,,,,,090524,$GPRMC,173621.00,V,,,,,,,090524,$GPRMC,173621.00,V,,,,,,,090524,$GPRMC,173621.00,V,,,,,,,090524,$GPRMC,173621.00,V,,,,,,,090524,$GPRMC,173621.00,V,,,,,,,090524,$GPRMC,173621.00,V,,,,,,,090524,$GPRMC,173621.00,V,,,,,,,090524,$GPRMC,173621.00,V,,,,,,,090524,$GPRMC,173621.00,V,,,,,,,090524,$GPRMC,173621.00,V,,,,,,,090524,$GPRMC,173621.00,V,,,,,,,090524,$GPRMC,173621.00,V,,,,,,,090524,$GPRMC,173621.00,V,,,,,,,090524,$GPRMC,173621.00,V,,,,,,,090524,$GPRMC,173621.00,V,,,,,,,090524,$GPRMC,173621.00,V,,,,,,,090524,$GPRMC,173621.00,V,,,,,,,090524,$GPRMC,173621.00,V,,,,,,,090524,$GPRMC,173621.00,V,,,,,,,090524,$GPRMC,173621.00,V,,,,,,,090524,$GPRMC,173621.00,V,,,,,,,090524,$GPRMC,173621.00,V,,,,,,,090524,$GPRMC,173621.00,V,,,,,,,090524,$GPRMC,173621.00,V,,,,,,,090524,$GPRMC,173621.00,V,,,,,,,090524,$GPRMC,173621.00,V,,,,,,,090524,$GPRMC,173621.00,V,,,,,,,090524,$GPRMC,173621.00,V,,,,,,,090524,$GPRMC,173621.00,V,,,,,,,090524,$GPRMC,173621.00,V,,,,,,,090524,$GPRMC,173621.00,V,,,,,,,090524,$GPRMC,173621.00,V,,,,,,,090524,$GPRMC,173621.00,V,,,,,,,090524,$GPRMC,173621.00,V,,,,,,,090524,$GPRMC,173621.00,V,,,,,,,090524,$GPRMC,173621.00,V,,,,,,,090524,$GPRMC,173621.00,V,,,,,,,090524,$GPRMC,173621.00,V,,,,,,,090524,$GPRMC,173621.00,V,,,,,,,090524,$GPRMC,173621.00,V,,,,,,,090524,$GPRMC,173621.00,V,,,,,,,090524,$GPRMC,173621.00,V,,,,,,,090524,$GPRMC,173621.00,V,,,,,,,090524,$GPRMC,173621.00,V,,,,,,,090524,$GPRMC,173621.00,V,,,,,,,090524,$GPRMC,173621.00,V,,,,,,,090524,$GPRMC,173621.00,V,,,,,,,090524,$GPRMC,173621.00,V,,,,,,,090524,$GPRMC,173621.00,V,,,,,,,090524,$GPRMC,173621.00,V,,,,,,,090524,$GPRMC,173621.00,V,,,,,,,090524,$GPRMC,173621.00,V,,,,,,,090524,$GPRMC,173621.00,V,,,,,,,090524,$GPRMC,173621.00,V,,,,,,,090524,$GPRMC,173621.00,V,,,,,,,090524,$GPRMC,173621.00,V,,,,,,,090524,$GPRMC,173621.00,V,,,,,,,090524,$GPRMC,173621.00,V,,,,,,,090524,$GPRMC,173621.00,V,,,,,,,090524,$GPRMC,173621.00,V,,,,,,,090524,$GPRMC,173621.00,V,,,,,,,090524,$GPRMC,173621.00,V,,,,,,,090524,$GPRMC,173621.00,V,,,,,,,090524,$GPRMC,173621.00,V,,,,,,,090524,$GPRMC,173621.00,V,,,,,,,090524,$GPRMC,173621.00,V,,,,,,,090524,$GPRMC,173621.00,V,,,,,,,090524,$GPRMC,173621.00,V,,,,,,,090524,$GPRMC,173621.00,V,,,,,,,090524,$GPRMC,173621.00,V,,,,,,,090524,$GPRMC,173621.00,V,,,,,,,090524,$GPRMC,173621.00,V,,,,,,,090524,$GPRMC,173621.00,V,,,,,,,090524,$GPRMC,173621.00,V,,,,,,,090524,$GPRMC,173621.00,V,,,,,,,090524,$GPRMC,173621.00,V,,,,,,,090524,$GPRMC,173621.00,V,,,,,,,090524,$GPRMC,173621.00,V,,,,,,,090524,$GPRMC,173621.00,V,,,,,,,090524,$GPRMC,173621.00,V,,,,,,,090524,$GPRMC,173621.00,V,,,,,,,090524,$GPRMC,173621.00,V,,,,,,,090524,$GPRMC,173621.00,V,,,,,,,090524,$GPRMC,173621.00,V,,,,,,,090524,$GPRMC,173621.00,V,,,,,,,090524,$GPRMC,173621.00,V,,,,,,,090524,$GPRMC,173621.00,V,,,,,,,090524,$GPRMC,173621.00,V,,,,,,,090524,$GPRMC,173621.00,V,,,,,,,090524,$GPRMC,173621.00,V,,,,,,,090524,$GPRMC,173621.00,V,,,,,,,090524,$GPRMC,173621.00,V,,,,,,,090524,$GPRMC,173621.00,V,,,,,,,090524,$GPRMC,173621.00,V,,,,,,,090524,$GPRMC,173621.00,V,,,,,,,090524,$GPRMC,173621.00,V,,,,,,,090524,$GPRMC,173621.00,V,,,,,,,090524,$GPRMC,173621.00,V,,,,,,,090524,$GPRMC,173621.00,V,,,,,,,090524,$GPRMC,173621.00,V,,,,,,,090524,$GPRMC,173621.00,V,,,,,,,090524,$GPRMC,173621.00,V,,,,,,,090524,$GPRMC,173621.00,V,,,,,,,090524,$GPRMC,173621.00,V,,,,,,,090524,$GPRMC,173621.00,V,,,,,,,090524,$GPRMC,173621.00,V,,,,,,,090524,$GPRMC,173621.00,V,,,,,,,090524,$GPRMC,173621.00,V,,,,,,,090524,$GPRMC,173621.00,V,,,,,,,090524,$GPRMC,173621.00,V,,,,,,,090524,$GPRMC,173621.00,V,,,,,,,090524,$GPRMC,173621.00,V,,,,,,,090524,$GPRMC,173621.00,V,,,,,,,090524,$GPRMC,173621.00,V,,,,,,,090524,$GPRMC,173621.00,V,,,,,,,090524,$GPRMC,173621.00,V,,,,,,,090524,$GPRMC,173621.00,V,,,,,,,090524,$GPRMC,173621.00,V,,,,,,,090524,$GPRMC,173621.00,V,,,,,,,090524,$GPRMC,173621.00,V,,,,,,,090524,$GPRMC,173621.00,V,,,,,,,090524,$GPRMC,173621.00,V,,,,,,,090524,$GPRMC,173621.00,V,,,,,,,090524,$GPRMC,173621.00,V,,,,,,,090524,$GPRMC,173621.00,V,,,,,,,090524,$GPRMC,173621.00,V,,,,,,,090524,$GPRMC,173621.00,V,,,,,,,090524,$GPRMC,173621.00,V,,,,,,,090524,$GPRMC,173621.00,V,,,,,,,090524,$GPRMC,173621.00,V,,,,,,,090524,$GPRMC,173621.00,V,,,,,,,090524,$GPRMC,173621.00,V,,,,,,,090524,$GPRMC,173621.00,V,,,,,,,090524,$GPRMC,173621.00,V,,,,,,,090524,$GPRMC,173621.00,V,,,,,,,090524,$GPRMC,173621.00,V,,,,,,,090524,$GPRMC,173621.00,V,,,,,,,090524,$GPRMC,173621.00,V,,,,,,,090524,$GPRMC,173621.00,V,,,,,,,090524,$GPRMC,173621.00,V,,,,,,,090524,$GPRMC,173621.00,V,,,,,,,090524,$GPRMC,173621.00,V,,,,,,,090524,$GPRMC,173621.00,V,,,,,,,090524,$GPRMC,173621.00,V,,,,,,,090524,$GPRMC,173621.00,V,,,,,,,090524,$GPRMC,173621.00,V,,,,,,,090524,$GPRMC,173621.00,V,,,,,,,090524,$GPRMC,173621.00,V,,,,,,,090524,$GPRMC,173621.00,V,,,,,,,090524,$GPRMC,173621.00,V,,,,,,,090524,$GPRMC,173621.00,V,,,,,,,090524,$GPRMC,173621.00,V,,,,,,,090524,$GPRMC,173621.00,V,,,,,,,090524,$GPRMC,173621.00,V,,,,,,,090524,$GPRMC,173621.00,V,,,,,,,090524,$GPRMC,173621.00,V,,,,,,,090524,$GPRMC,173621.00,V,,,,,,,090524,$GPRMC,173621.00,V,,,,,,,090524,$GPRMC,173621.00,V,,,,,,,090524,$GPRMC,173621.00,V,,,,,,,090524,$GPRMC,173621.00,V,,,,,,,090524,$GPRMC,173621.00,V,,,,,,,090524,$GPRMC,173621.00,V,,,,,,,090524,$GPRMC,173621.00,V,,,,,,,090524,$GPRMC,173621.00,V,,,,,,,090524,$GPRMC,173621.00,V,,,,,,,090524,$GPRMC,173621.00,V,,,,,,,090524,$GPRMC,173621.00,V,,,,,,,090524,$GPRMC,173621.00,V,,,,,,,090524,$GPRMC,173621.00,V,,,,,,,090524,$GPRMC,173621.00,V,,,,,,,090524,$GPRMC,173621.00,V,,,,,,,090524,$GPRMC,173621.00,V,,,,,,,090524,$GPRMC,173621.00,V,,,,,,,090524,$GPRMC,173621.00,V,,,,,,,090524,$GPRMC,173621.00,V,,,,,,,090524,$GPRMC,173621.00,V,,,,,,,090524,$GPRMC,173621.00,V,,,,,,,090524,$GPRMC,173621.00,V,,,,,,,090524,$GPRMC,173621.00,V,,,,,,,090524,$GPRMC,173621.00,V,,,,,,,090524,$GPRMC,173621.00,V,,,,,,,090524,$GPRMC,173621.00,V,,,,,,,090524,$GPRMC,173621.00,V,,,,,,,090524,$GPRMC,173621.00,V,,,,,,,090524,$GPRMC,173621.00,V,,,,,,,090524,$GPRMC,173621.00,V,,,,,,,090524,$GPRMC,173621.00,V,,,,,,,090524,$GPRMC,173621.00,V,,,,,,,090524,$GPRMC,173621.00,V,,,,,,,090524,$GPRMC,173621.00,V,,,,,,,090524,$GPRMC,173621.00,V,,,,,,,090524,$GPRMC,173621.00,V,,,,,,,090524,$GPRMC,173621.00,V,,,,,,,090524,$GPRMC,173621.00,V,,,,,,,090524,$GPRMC,173621.00,V,,,,,,,090524,$GPRMC,173621.00,V,,,,,,,090524,$GPRMC,173621.00,V,,,,,,,090524,$GPRMC,173621.00,V,,,,,,,090524,$GPRMC,173621.00,V,,,,,,,090524,$GPRMC,173621.00,V,,,,,,,090524,$GPRMC,173621.00,V,,,,,,,090524,$GPRMC,173621.00,V,,,,,,,090524,$GPRMC,173621.00,V,,,,,,,090524,$GPRMC,173621.00,V,,,,,,,090524,$GPRMC,173621.00,V,,,,,,,090524,$GPRMC,173621.00,V,,,,,,,090524,$GPRMC,173621.00,V,,,,,,,090524,$GPRMC,173621.00,V,,,,,,,090524,$GPRMC,173621.00,V,,,,,,,090524,$GPRMC,173621.00,V,,,,,,,090524,$GPRMC,173621.00,V,,,,,,,090524,$GPRMC,173621.00,V,,,,,,,090524,$GPRMC,173621.00,V,,,,,,,090524,$GPRMC,173621.00,V,,,,,,,090524,$GPRMC,173621.00,V,,,,,,,090524,$GPRMC,173621.00,V,,,,,,,090524,$GPRMC,173621.00,V,,,,,,,090524,$GPRMC,173621.00,V,,,,,,,090524,$GPRMC,173621.00,V,,,,,,,090524,$GPRMC,173621.00,V,,,,,,,090524,$GPRMC,173621.00,V,,,,,,,090524,$GPRMC,173621.00,V,,,,,,,090524,$GPRMC,173621.00,V,,,,,,,090524,$GPRMC,173621.00,V,,,,,,,090524,$GPRMC,173621.00,V,,,,,,,090524,$GPRMC,173621.00,V,,,,,,,090524,$GPRMC,173621.00,V,,,,,,,090524,$GPRMC,173621.00,V,,,,,,,090524,$GPRMC,173621.00,V,,,,,,,090524,$GPRMC,173621.00,V,,,,,,,090524,$GPRMC,173621.00,V,,,,,,,090524,$GPRMC,173621.00,V,,,,,,,090524,$GPRMC,173621.00,V,,,,,,,090524,$GPRMC,173621.00,V,,,,,,,090524,$GPRMC,173621.00,V,,,,,,,090524,$GPRMC,173621.00,V,,,,,,,090524,$GPRMC,173621.00,V,,,,,,,090524,$GPRMC,173621.00,V,,,,,,,090524,$GPRMC,173621.00,V,,,,,,,090524,$GPRMC,173621.00,V,,,,,,,090524,$GPRMC,173621.00,V,,,,,,,090524,$GPRMC,173621.00,V,,,,,,,090524,$GPRMC,173621.00,V,,,,,,,090524,$GPRMC,173621.00,V,,,,,,,090524,$GPRMC,173621.00,V,,,,,,,090524,$GPRMC,173621.00,V,,,,,,,090524,$GPRMC,173621.00,V,,,,,,,090524,$GPRMC,173621.00,V,,,,,,,090524,$GPRMC,173621.00,V,,,,,,,090524,$GPRMC,173621.00,V,,,,,,,090524,$GPRMC,173621.00,V,,,,,,,090524,$GPRMC,173621.00,V,,,,,,,090524,$GPRMC,173621.00,V,,,,,,,090524,$GPRMC,173621.00,V,,,,,,,090524,$GPRMC,173621.00,V,,,,,,,090524,$GPRMC,173621.00,V,,,,,,,090524,$GPRMC,173621.00,V,,,,,,,090524,$GPRMC,173621.00,V,,,,,,,090524,$GPRMC,173621.00,V,,,,,,,090524,$GPRMC,173621.00,V,,,,,,,090524,$GPRMC,173621.00,V,,,,,,,090524,$GPRMC,173621.00,V,,,,,,,090524,$GPRMC,173621.00,V,,,,,,,090524,$GPRMC,173621.00,V,,,,,,,090524,$GPRMC,173621.00,V,,,,,,,090524,$GPRMC,173621.00,V,,,,,,,090524,$GPRMC,173621.00,V,,,,,,,090524,$GPRMC,173621.00,V,,,,,,,090524,$GPRMC,173621.00,V,,,,,,,090524,$GPRMC,173621.00,V,,,,,,,090524,$GPRMC,173621.00,V,,,,,,,090524,$GPRMC,173621.00,V,,,,,,,090524,$GPRMC,173621.00,V,,,,,,,090524,$GPRMC,173621.00,V,,,,,,,090524,$GPRMC,173621.00,V,,,,,,,090524,$GPRMC,173621.00,V,,,,,,,090524,$GPRMC,173621.00,V,,,,,,,090524,$GPRMC,173621.00,V,,,,,,,090524,$GPRMC,173621.00,V,,,,,,,090524,$GPRMC,173621.00,V,,,,,,,090524,$GPRMC,173621.00,V,,,,,,,090524,$GPRMC,173621.00,V,,,,,,,090524,$GPRMC,173621.00,V,,,,,,,090524,$GPRMC,173621.00,V,,,,,,,090524,$GPRMC,173621.00,V,,,,,,,090524,$GPRMC,173621.00,V,,,,,,,090524,$GPRMC,173621.00,V,,,,,,,090524,$GPRMC,173621.00,V,,,,,,,090524,$GPRMC,173621.00,V,,,,,,,090524,$GPRMC,173621.00,V,,,,,,,090524,$GPRMC,173621.00,V,,,,,,,090524,$GPRMC,173621.00,V,,,,,,,090524,$GPRMC,173621.00,V,,,,,,,090524,$GPRMC,173621.00,V,,,,,,,090524,$GPRMC,173621.00,V,,,,,,,090524,$GPRMC,173621.00,V,,,,,,,090524,$GPRMC,173621.00,V,,,,,,,090524,$GPRMC,173621.00,V,,,,,,,090524,$GPRMC,173621.00,V,,,,,,,090524,$GPRMC,173621.00,V,,,,,,,090524,$GPRMC,173621.00,V,,,,,,,090524,$GPRMC,173621.00,V,,,,,,,090524,$GPRMC,173621.00,V,,,,,,,090524,$GPRMC,173621.00,V,,,,,,,090524,$GPRMC,173621.00,V,,,,,,,090524,$GPRMC,173621.00,V,,,,,,,090524,$GPRMC,173621.00,V,,,,,,,090524,$GPRMC,173621.00,V,,,,,,,090524,$GPRMC,173621.00,V,,,,,,,090524,$GPRMC,173621.00,V,,,,,,,090524,$GPRMC,173621.00,V,,,,,,,090524,$GPRMC,173621.00,V,,,,,,,090524,$GPRMC,173621.00,V,,,,,,,090524,$GPRMC,173621.00,V,,,,,,,090524,$GPRMC,173621.00,V,,,,,,,090524,$GPRMC,173621.00,V,,,,,,,090524,$GPRMC,173621.00,V,,,,,,,090524,$GPRMC,173621.00,V,,,,,,,090524,$GPRMC,173621.00,V,,,,,,,090524,$GPRMC,173621.00,V,,,,,,,090524,$GPRMC,173621.00,V,,,,,,,090524,$GPRMC,173621.00,V,,,,,,,090524,$GPRMC,173621.00,V,,,,,,,090524,$GPRMC,173621.00,V,,,,,,,090524,$GPRMC,173621.00,V,,,,,,,090524,$GPRMC,173621.00,V,,,,,,,090524,$GPRMC,173621.00,V,,,,,,,090524,$GPRMC,173621.00,V,,,,,,,090524,$GPRMC,173621.00,V,,,,,,,090524,$GPRMC,173621.00,V,,,,,,,090524,$GPRMC,173621.00,V,,,,,,,090524,$GPRMC,173621.00,V,,,,,,,090524,$GPRMC,173621.00,V,,,,,,,090524,$GPRMC,173621.00,V,,,,,,,090524,$GPRMC,173621.00,V,,,,,,,090524,$GPRMC,173621.00,V,,,,,,,090524,$GPRMC,173621.00,V,,,,,,,090524,$GPRMC,173621.00,V,,,,,,,090524,$GPRMC,173621.00,V,,,,,,,090524,$GPRMC,173621.00,V,,,,,,,090524,$GPRMC,173621.00,V,,,,,,,090524,$GPRMC,173621.00,V,,,,,,,090524,$GPRMC,173621.00,V,,,,,,,090524,$GPRMC,173621.00,V,,,,,,,090524,$GPRMC,173621.00,V,,,,,,,090524,$GPRMC,173621.00,V,,,,,,,090524,$GPRMC,173621.00,V,,,,,,,090524,$GPRMC,173621.00,V,,,,,,,090524,$GPRMC,173621.00,V,,,,,,,090524,$GPRMC,173621.00,V,,,,,,,090524,$GPRMC,173621.00,V,,,,,,,090524,$GPRMC,173621.00,V,,,,,,,090524,$GPRMC,173621.00,V,,,,,,,090524,$GPRMC,173621.00,V,,,,,,,090524,$GPRMC,173621.00,V,,,,,,,090524,$GPRMC,173621.00,V,,,,,,,090524,$GPRMC,173621.00,V,,,,,,,090524,$GPRMC,173621.00,V,,,,,,,090524,$GPRMC,173621.00,V,,,,,,,090524,$GPRMC,173621.00,V,,,,,,,090524,$GPRMC,173621.00,V,,,,,,,090524,$GPRMC,173621.00,V,,,,,,,090524,$GPRMC,173621.00,V,,,,,,,090524,$GPRMC,173621.00,V,,,,,,,090524,$GPRMC,173621.00,V,,,,,,,090524,$GPRMC,173621.00,V,,,,,,,090524,$GPRMC,173621.00,V,,,,,,,090524,$GPRMC,173621.00,V,,,,,,,090524,$GPRMC,173621.00,V,,,,,,,090524,$GPRMC,173621.00,V,,,,,,,090524,$GPRMC,173621.00,V,,,,,,,090524,$GPRMC,173621.00,V,,,,,,,090524,$GPRMC,173621.00,V,,,,,,,090524,$GPRMC,173621.00,V,,,,,,,090524,$GPRMC,173621.00,V,,,,,,,090524,$GPRMC,173621.00,V,,,,,,,090524,$GPRMC,173621.00,V,,,,,,,090524,$GPRMC,173621.00,V,,,,,,,090524,$GPRMC,173621.00,V,,,,,,,090524,$GPRMC,173621.00,V,,,,,,,090524,$GPRMC,173621.00,V,,,,,,,090524,$GPRMC,173621.00,V,,,,,,,090524,$GPRMC,173621.00,V,,,,,,,090524,$GPRMC,173621.00,V,,,,,,,090524,$GPRMC,173621.00,V,,,,,,,090524,$GPRMC,173621.00,V,,,,,,,090524,$GPRMC,173621.00,V,,,,,,,090524,$GPRMC,173621.00,V,,,,,,,090524,$GPRMC,173621.00,V,,,,,,,090524,$GPRMC,173621.00,V,,,,,,,090524,$GPRMC,173621.00,V,,,,,,,090524,$GPRMC,173621.00,V,,,,,,,090524,$GPRMC,173621.00,V,,,,,,,090524,$GPRMC,173621.00,V,,,,,,,090524,$GPRMC,173621.00,V,,,,,,,090524,$GPRMC,173621.00,V,,,,,,,090524,$GPRMC,173621.00,V,,,,,,,090524,$GPRMC,173621.00,V,,,,,,,090524,$GPRMC,173621.00,V,,,,,,,090524,$GPRMC,173621.00,V,,,,,,,090524,$GPRMC,173621.00,V,,,,,,,090524,$GPRMC,173621.00,V,,,,,,,090524,$GPRMC,173621.00,V,,,,,,,090524,$GPRMC,173621.00,V,,,,,,,090524,$GPRMC,173621.00,V,,,,,,,090524,$GPRMC,173621.00,V,,,,,,,090524,$GPRMC,173621.00,V,,,,,,,090524,$GPRMC,173621.00,V,,,,,,,090524,$GPRMC,173621.00,V,,,,,,,090524,$GPRMC,173621.00,V,,,,,,,090524,$GPRMC,173621.00,V,,,,,,,090524,$GPRMC,173621.00,V,,,,,,,090524,$GPRMC,173621.00,V,,,,,,,090524,$GPRMC,173621.00,V,,,,,,,090524,$GPRMC,173621.00,V,,,,,,,090524,$GPRMC,173621.00,V,,,,,,,090524,$GPRMC,173621.00,V,,,,,,,090524,$GPRMC,173621.00,V,,,,,,,090524,$GPRMC,173621.00,V,,,,,,,090524,$GPRMC,173621.00,V,,,,,,,090524,$GPRMC,173621.00,V,,,,,,,090524,$GPRMC,173621.00,V,,,,,,,090524,$GPRMC,173621.00,V,,,,,,,090524,$GPRMC,173621.00,V,,,,,,,090524,$GPRMC,173621.00,V,,,,,,,090524,$GPRMC,173621.00,V,,,,,,,090524,$GPRMC,173621.00,V,,,,,,,090524,$GPRMC,173621.00,V,,,,,,,090524,$GPRMC,173621.00,V,,,,,,,090524,$GPRMC,173621.00,V,,,,,,,090524,$GPRMC,173621.00,V,,,,,,,090524,$GPRMC,173621.00,V,,,,,,,090524,$GPRMC,173621.00,V,,,,,,,090524,$GPRMC,173621.00,V,,,,,,,090524,$GPRMC,173621.00,V,,,,,,,090524,$GPRMC,173621.00,V,,,,,,,090524,$GPRMC,173621.00,V,,,,,,,090524,$GPRMC,173621.00,V,,,,,,,090524,$GPRMC,173621.00,V,,,,,,,090524,$GPRMC,173621.00,V,,,,,,,090524,$GPRMC,173621.00,V,,,,,,,090524,$GPRMC,173621.00,V,,,,,,,090524,$GPRMC,173621.00,V,,,,,,,090524,$GPRMC,173621.00,V,,,,,,,090524,$GPRMC,173621.00,V,,,,,,,090524,$GPRMC,173621.00,V,,,,,,,090524,$GPRMC,173621.00,V,,,,,,,090524,$GPRMC,173621.00,V,,,,,,,090524,$GPRMC,173621.00,V,,,,,,,090524,$GPRMC,173621.00,V,,,,,,,090524,$GPRMC,173621.00,V,,,,,,,090524,$GPRMC,173621.00,V,,,,,,,090524,$GPRMC,173621.00,V,,,,,,,090524,$GPRMC,173621.00,V,,,,,,,090524,$GPRMC,173621.00,V,,,,,,,090524,$GPRMC,173621.00,V,,,,,,,090524,$GPRMC,173621.00,V,,,,,,,090524,$GPRMC,173621.00,V,,,,,,,090524,$GPRMC,173621.00,V,,,,,,,090524,$GPRMC,173621.00,V,,,,,,,090524,$GPRMC,173621.00,V,,,,,,,090524,$GPRMC,173621.00,V,,,,,,,090524,$GPRMC,173621.00,V,,,,,,,090524,$GPRMC,173621.00,V,,,,,,,090524,$GPRMC,173621.00,V,,,,,,,090524,$GPRMC,173621.00,V,,,,,,,090524,$GPRMC,173621.00,V,,,,,,,090524,$GPRMC,173621.00,V,,,,,,,090524,$GPRMC,173621.00,V,,,,,,,090524,$GPRMC,173621.00,V,,,,,,,090524,$GPRMC,173621.00,V,,,,,,,090524,$GPRMC,173621.00,V,,,,,,,090524,$GPRMC,173621.00,V,,,,,,,090524,$GPRMC,173621.00,V,,,,,,,090524,$GPRMC,173621.00,V,,,,,,,090524,$GPRMC,173621.00,V,,,,,,,090524,$GPRMC,173621.00,V,,,,,,,090524,$GPRMC,173621.00,V,,,,,,,090524,$GPRMC,173621.00,V,,,,,,,090524,$GPRMC,173621.00,V,,,,,,,090524,$GPRMC,173621.00,V,,,,,,,090524,$GPRMC,173621.00,V,,,,,,,090524,$GPRMC,173621.00,V,,,,,,,090524,$GPRMC,173621.00,V,,,,,,,090524,$GPRMC,173621.00,V,,,,,,,090524,$GPRMC,173621.00,V,,,,,,,090524,$GPRMC,173621.00,V,,,,,,,090524,$GPRMC,173621.00,V,,,,,,,090524,$GPRMC,173621.00,V,,,,,,,090524,$GPRMC,173621.00,V,,,,,,,090524,$GPRMC,173621.00,V,,,,,,,090524,$GPRMC,173621.00,V,,,,,,,090524,$GPRMC,173621.00,V,,,,,,,090524,$GPRMC,173621.00,V,,,,,,,090524,$GPRMC,173621.00,V,,,,,,,090524,$GPRMC,173621.00,V,,,,,,,090524,$GPRMC,173621.00,V,,,,,,,090524,$GPRMC,173621.00,V,,,,,,,090524,$GPRMC,173621.00,V,,,,,,,090524,$GPRMC,173621.00,V,,,,,,,090524,$GPRMC,173621.00,V,,,,,,,090524,$GPRMC,173621.00,V,,,,,,,090524,$GPRMC,173621.00,V,,,,,,,090524,$GPRMC,173621.00,V,,,,,,,090524,$GPRMC,173621.00,V,,,,,,,090524,$GPRMC,173621.00,V,,,,,,,090524,$GPRMC,173621.00,V,,,,,,,090524,$GPRMC,173621.00,V,,,,,,,090524,$GPRMC,173621.00,V,,,,,,,090524,$GPRMC,173621.00,V,,,,,,,090524,$GPRMC,173621.00,V,,,,,,,090524,$GPRMC,173621.00,V,,,,,,,090524,$GPRMC,173621.00,V,,,,,,,090524,$GPRMC,173621.00,V,,,,,,,090524,$GPRMC,173621.00,V,,,,,,,090524,$GPRMC,173621.00,V,,,,,,,090524,$GPRMC,173621.00,V,,,,,,,090524,$GPRMC,173621.00,V,,,,,,,090524,$GPRMC,173621.00,V,,,,,,,090524,$GPRMC,173621.00,V,,,,,,,090524,$GPRMC,173621.00,V,,,,,,,090524,$GPRMC,173621.00,V,,,,,,,090524,$GPRMC,173621.00,V,,,,,,,090524,$GPRMC,173621.00,V,,,,,,,090524,$GPRMC,173621.00,V,,,,,,,090524,$GPRMC,173621.00,V,,,,,,,090524,$GPRMC,173621.00,V,,,,,,,090524,$GPRMC,173621.00,V,,,,,,,090524,$GPRMC,173621.00,V,,,,,,,090524,$GPRMC,173621.00,V,,,,,,,090524,$GPRMC,173621.00,V,,,,,,,090524,$GPRMC,173621.00,V,,,,,,,090524,$GPRMC,173621.00,V,,,,,,,090524,$GPRMC,173621.00,V,,,,,,,090524,$GPRMC,173621.00,V,,,,,,,090524,$GPRMC,173621.00,V,,,,,,,090524,$GPRMC,173621.00,V,,,,,,,090524,$GPRMC,173621.00,V,,,,,,,090524,$GPRMC,173621.00,V,,,,,,,090524,$GPRMC,173621.00,V,,,,,,,090524,$GPRMC,173621.00,V,,,,,,,090524,$GPRMC,173621.00,V,,,,,,,090524,$GPRMC,173621.00,V,,,,,,,090524,$GPRMC,173621.00,V,,,,,,,090524,$GPRMC,173621.00,V,,,,,,,090524,$GPRMC,173621.00,V,,,,,,,090524,$GPRMC,173621.00,V,,,,,,,090524,$GPRMC,173621.00,V,,,,,,,090524,$GPRMC,173621.00,V,,,,,,,090524,$GPRMC,173621.00,V,,,,,,,090524,$GPRMC,173621.00,V,,,,,,,090524,$GPRMC,173621.00,V,,,,,,,090524,$GPRMC,173621.00,V,,,,,,,090524,$GPRMC,173621.00,V,,,,,,,090524,$GPRMC,173621.00,V,,,,,,,090524,$GPRMC,173621.00,V,,,,,,,090524,$GPRMC,173621.00,V,,,,,,,090524,$GPRMC,173621.00,V,,,,,,,090524,$GPRMC,173621.00,V,,,,,,,090524,$GPRMC,173621.00,V,,,,,,,090524,$GPRMC,173621.00,V,,,,,,,090524,$GPRMC,173621.00,V,,,,,,,090524,$GPRMC,173621.00,V,,,,,,,090524,$GPRMC,173621.00,V,,,,,,,090524,$GPRMC,173621.00,V,,,,,,,090524,$GPRMC,173621.00,V,,,,,,,090524,$GPRMC,173621.00,V,,,,,,,090524,$GPRMC,173621.00,V,,,,,,,090524,$GPRMC,173621.00,V,,,,,,,090524,$GPRMC,173621.00,V,,,,,,,090524,$GPRMC,173621.00,V,,,,,,,090524,$GPRMC,173621.00,V,,,,,,,090524,$GPRMC,173621.00,V,,,,,,,090524,$GPRMC,173621.00,V,,,,,,,090524,$GPRMC,173621.00,V,,,,,,,090524,$GPRMC,173621.00,V,,,,,,,090524,$GPRMC,173621.00,V,,,,,,,090524,$GPRMC,173621.00,V,,,,,,,090524,$GPRMC,173621.00,V,,,,,,,090524,$GPRMC,173621.00,V,,,,,,,090524,$GPRMC,173621.00,V,,,,,,,090524,$GPRMC,173621.00,V,,,,,,,090524,$GPRMC,173621.00,V,,,,,,,090524,$GPRMC,173621.00,V,,,,,,,090524,$GPRMC,173621.00,V,,,,,,,090524,$GPRMC,173621.00,V,,,,,,,090524,$GPRMC,173621.00,V,,,,,,,090524,$GPRMC,173621.00,V,,,,,,,090524,$GPRMC,173621.00,V,,,,,,,090524,$GPRMC,173621.00,V,,,,,,,090524,$GPRMC,173621.00,V,,,,,,,090524,$GPRMC,173621.00,V,,,,,,,090524,$GPRMC,173621.00,V,,,,,,,090524,$GPRMC,173621.00,V,,,,,,,090524,$GPRMC,173621.00,V,,,,,,,090524,$GPRMC,173621.00,V,,,,,,,090524,$GPRMC,173621.00,V,,,,,,,090524,$GPRMC,173621.00,V,,,,,,,090524,$GPRMC,173621.00,V,,,,,,,090524,$GPRMC,173621.00,V,,,,,,,090524,$GPRMC,173621.00,V,,,,,,,090524,$GPRMC,173621.00,V,,,,,,,090524,$GPRMC,173621.00,V,,,,,,,090524,$GPRMC,173621.00,V,,,,,,,090524,$GPRMC,173621.00,V,,,,,,,090524,$GPRMC,173621.00,V,,,,,,,090524,$GPRMC,173621.00,V,,,,,,,090524,$GPRMC,173621.00,V,,,,,,,090524,$GPRMC,173621.00,V,,,,,,,090524,$GPRMC,173621.00,V,,,,,,,090524,$GPRMC,173621.00,V,,,,,,,090524,$GPRMC,173621.00,V,,,,,,,090524,$GPRMC,173621.00,V,,,,,,,090524,$GPRMC,173621.00,V,,,,,,,090524,$GPRMC,173621.00,V,,,,,,,090524,$GPRMC,173621.00,V,,,,,,,090524,$GPRMC,173621.00,V,,,,,,,090524,$GPRMC,173621.00,V,,,,,,,090524,$GPRMC,173621.00,V,,,,,,,090524,$GPRMC,173621.00,V,,,,,,,090524,$GPRMC,173621.00,V,,,,,,,090524,$GPRMC,173621.00,V,,,,,,,090524,$GPRMC,173621.00,V,,,,,,,090524,$GPRMC,173621.00,V,,,,,,,090524,$GPRMC,173621.00,V,,,,,,,090524,$GPRMC,173621.00,V,,,,,,,090524,$GPRMC,173621.00,V,,,,,,,090524,$GPRMC,173621.00,V,,,,,,,090524,$GPRMC,173621.00,V,,,,,,,090524,$GPRMC,173621.00,V,,,,,,,090524,$GPRMC,173621.00,V,,,,,,,090524,$GPRMC,173621.00,V,,,,,,,090524,$GPRMC,173621.00,V,,,,,,,090524,$GPRMC,173621.00,V,,,,,,,090524,$GPRMC,173621.00,V,,,,,,,090524,$GPRMC,173621.00,V,,,,,,,090524,$GPRMC,173621.00,V,,,,,,,090524,$GPRMC,173621.00,V,,,,,,,090524,$GPRMC,173621.00,V,,,,,,,090524,$GPRMC,173621.00,V,,,,,,,090524,$GPRMC,173621.00,V,,,,,,,090524,$GPRMC,173621.00,V,,,,,,,090524,$GPRMC,173621.00,V,,,,,,,090524,$GPRMC,173621.00,V,,,,,,,090524,$GPRMC,173621.00,V,,,,,,,090524,$GPRMC,173621.00,V,,,,,,,090524,$GPRMC,173621.00,V,,,,,,,090524,$GPRMC,173621.00,V,,,,,,,090524,$GPRMC,173621.00,V,,,,,,,090524,$GPRMC,173621.00,V,,,,,,,090524,$GPRMC,173621.00,V,,,,,,,090524,$GPRMC,173621.00,V,,,,,,,090524,$GPRMC,173621.00,V,,,,,,,090524,$GPRMC,173621.00,V,,,,,,,090524,$GPRMC,173621.00,V,,,,,,,090524,$GPRMC,173621.00,V,,,,,,,090524,$GPRMC,173621.00,V,,,,,,,090524,$GPRMC,173621.00,V,,,,,,,090524,$GPRMC,173621.00,V,,,,,,,090524,$GPRMC,173621.00,V,,,,,,,090524,$GPRMC,173621.00,V,,,,,,,090524,$GPRMC,173621.00,V,,,,,,,090524,$GPRMC,173621.00,V,,,,,,,090524,$GPRMC,173621.00,V,,,,,,,090524,$GPRMC,173621.00,V,,,,,,,090524,$GPRMC,173621.00,V,,,,,,,090524,$GPRMC,173621.00,V,,,,,,,090524,$GPRMC,173621.00,V,,,,,,,090524,$GPRMC,173621.00,V,,,,,,,090524,$GPRMC,173621.00,V,,,,,,,090524,$GPRMC,173621.00,V,,,,,,,090524,$GPRMC,173621.00,V,,,,,,,090524,$GPRMC,173621.00,V,,,,,,,090524,$GPRMC,173621.00,V,,,,,,,090524,$GPRMC,173621.00,V,,,,,,,090524,$GPRMC,173621.00,V,,,,,,,090524,$GPRMC,173621.00,V,,,,,,,090524,$GPRMC,173621.00,V,,,,,,,090524,$GPRMC,173621.00,V,,,,,,,090524,$GPRMC,173621.00,V,,,,,,,090524,$GPRMC,173621.00,V,,,,,,,090524,$GPRMC,173621.00,V,,,,,,,090524,$GPRMC,173621.00,V,,,,,,,090524,$GPRMC,173621.00,V,,,,,,,090524,$GPRMC,173621.00,V,,,,,,,090524,$GPRMC,173621.00,V,,,,,,,090524,$GPRMC,173621.00,V,,,,,,,090524,$GPRMC,173621.00,V,,,,,,,090524,$GPRMC,173621.00,V,,,,,,,090524,$GPRMC,173621.00,V,,,,,,,090524,$GPRMC,173621.00,V,,,,,,,090524,$GPRMC,173621.00,V,,,,,,,090524,$GPRMC,173621.00,V,,,,,,,090524,$GPRMC,173621.00,V,,,,,,,090524,$GPRMC,173621.00,V,,,,,,,090524,$GPRMC,173621.00,V,,,,,,,090524,$GPRMC,173621.00,V,,,,,,,090524,$GPRMC,173621.00,V,,,,,,,090524,$GPRMC,173621.00,V,,,,,,,090524,$GPRMC,173621.00,V,,,,,,,090524,$GPRMC,173621.00,V,,,,,,,090524,$GPRMC,173621.00,V,,,,,,,090524,$GPRMC,173621.00,V,,,,,,,090524,$GPRMC,173621.00,V,,,,,,,090524,$GPRMC,173621.00,V,,,,,,,090524,$GPRMC,173621.00,V,,,,,,,090524,$GPRMC,173621.00,V,,,,,,,090524,$GPRMC,173621.00,V,,,,,,,090524,$GPRMC,173621.00,V,,,,,,,090524,$GPRMC,173621.00,V,,,,,,,090524,$GPRMC,173621.00,V,,,,,,,090524,$GPRMC,173621.00,V,,,,,,,090524,$GPRMC,173621.00,V,,,,,,,090524,$GPRMC,173621.00,V,,,,,,,090524,$GPRMC,173621.00,V,,,,,,,090524,$GPRMC,173621.00,V,,,,,,,090524,$GPRMC,173621.00,V,,,,,,,090524,$GPRMC,173621.00,V,,,,,,,090524,$GPRMC,173621.00,V,,,,,,,090524,$GPRMC,173621.00,V,,,,,,,090524,$GPRMC,173621.00,V,,,,,,,090524,$GPRMC,173621.00,V,,,,,,,090524,$GPRMC,173621.00,V,,,,,,,090524,$GPRMC,173621.00,V,,,,,,,090524,$GPRMC,173621.00,V,,,,,,,090524,$GPRMC,173621.00,V,,,,,,,090524,$GPRMC,173621.00,V,,,,,,,090524,$GPRMC,173621.00,V,,,,,,,090524,$GPRMC,173621.00,V,,,,,,,090524,$GPRMC,173621.00,V,,,,,,,090524,$GPRMC,173621.00,V,,,,,,,090524,$GPRMC,173621.00,V,,,,,,,090524,$GPRMC,173621.00,V,,,,,,,090524,$GPRMC,173621.00,V,,,,,,,090524,$GPRMC,173621.00,V,,,,,,,090524,$GPRMC,173621.00,V,,,,,,,090524,$GPRMC,173621.00,V,,,,,,,090524,$GPRMC,173621.00,V,,,,,,,090524,$GPRMC,173621.00,V,,,,,,,090524,$GPRMC,173621.00,V,,,,,,,090524,$GPRMC,173621.00,V,,,,,,,090524,$GPRMC,173621.00,V,,,,,,,090524,$GPRMC,173621.00,V,,,,,,,090524,$GPRMC,173621.00,V,,,,,,,090524,$GPRMC,173621.00,V,,,,,,,090524,$GPRMC,173621.00,V,,,,,,,090524,$GPRMC,173621.00,V,,,,,,,090524,$GPRMC,173621.00,V,,,,,,,090524,$GPRMC,173621.00,V,,,,,,,090524,$GPRMC,173621.00,V,,,,,,,090524,$GPRMC,173621.00,V,,,,,,,090524,$GPRMC,173621.00,V,,,,,,,090524,$GPRMC,173621.00,V,,,,,,,090524,$GPRMC,173621.00,V,,,,,,,090524,$GPRMC,173621.00,V,,,,,,,090524,$GPRMC,173621.00,V,,,,,,,090524,$GPRMC,173621.00,V,,,,,,,090524,$GPRMC,173621.00,V,,,,,,,090524,$GPRMC,173621.00,V,,,,,,,090524,$GPRMC,173621.00,V,,,,,,,090524,$GPRMC,173621.00,V,,,,,,,090524,$GPRMC,173621.00,V,,,,,,,090524,$GPRMC,173621.00,V,,,,,,,090524,$GPRMC,173621.00,V,,,,,,,090524,$GPRMC,173621.00,V,,,,,,,090524,$GPRMC,173621.00,V,,,,,,,090524,$GPRMC,173621.00,V,,,,,,,090524,$GPRMC,173621.00,V,,,,,,,090524,$GPRMC,173621.00,V,,,,,,,090524,$GPRMC,173621.00,V,,,,,,,090524,$GPRMC,173621.00,V,,,,,,,090524,$GPRMC,173621.00,V,,,,,,,090524,$GPRMC,173621.00,V,,,,,,,090524,$GPRMC,173621.00,V,,,,,,,090524,$GPRMC,173621.00,V,,,,,,,090524,$GPRMC,173621.00,V,,,,,,,090524,$GPRMC,173621.00,V,,,,,,,090524,$GPRMC,173621.00,V,,,,,,,090524,$GPRMC,173621.00,V,,,,,,,090524,$GPRMC,173621.00,V,,,,,,,090524,$GPRMC,173621.00,V,,,,,,,090524,$GPRMC,173621.00,V,,,,,,,090524,$GPRMC,173621.00,V,,,,,,,090524,$GPRMC,173621.00,V,,,,,,,090524,$GPRMC,173621.00,V,,,,,,,090524,$GPRMC,173621.00,V,,,,,,,090524,$GPRMC,173621.00,V,,,,,,,090524,,,N*77

[2024-05-09 17:17:34.624244] $GPRMC,173622.00,V,,,,,,,090524,,,N*74

[2024-05-09 17:17:34.632274] $GPRMC,173623.00,A,3819.45528,N,02707.60025,E,2.068,,090524,,,A*7A

[2024-05-09 17:17:35.381468] $GPRMC,173624.00,A,3819.45515,N,02707.60061,E,0.804,,090524,,,A*73

[2024-05-09 17:17:36.381831] $GPRMC,173625.00,A,3819.45455,N,02707.60114,E,3.176,,090524,,,A*7B

[2024-05-09 17:17:37.381493] $GPRMC,173626.00,A,3819.45321,N,02707.60232,E,5.170,,090524,,,A*7B

[2024-05-09 17:17:38.346360] $GPRMC,173627.00,V,,,,,,,090524,,,N*71

[2024-05-09 17:17:39.345219] $GPRMC,173628.00,V,,,,,,,090524,,,N*7E

[2024-05-09 17:17:40.348792] $GPRMC,173629.00,V,,,,,,,090524,,,N*7F

[2024-05-09 17:17:41.354162] $GPRMC,173630.00,V,,,,,,,090524,,,N*77

[2024-05-09 17:17:42.394313] $GPRMC,173631.00,A,3819.44052,N,02707.59386,E,12.946,211.09,090524,,,A*51

[2024-05-09 17:17:43.384250] $GPRMC,173632.00,A,3819.43777,N,02707.59172,E,12.274,212.51,090524,,,A*58

[2024-05-09 17:17:44.384556] $GPRMC,173633.00,A,3819.43508,N,02707.59084,E,10.535,207.97,090524,,,A*55

[2024-05-09 17:17:45.382563] $GPRMC,173634.00,A,3819.43228,N,02707.58964,E,11.385,206.02,090524,,,A*50

[2024-05-09 17:17:46.382878] $GPRMC,173635.00,A,3819.42903,N,02707.58717,E,14.670,215.13,090524,,,A*50

[2024-05-09 17:17:47.382289] $GPRMC,173636.00,A,3819.42592,N,02707.58530,E,14.057,213.86,090524,,,A*59

[2024-05-09 17:17:48.382498] $GPRMC,173637.00,A,3819.42281,N,02707.58356,E,11.676,207.90,090524,,,A*59

[2024-05-09 17:17:49.384219] $GPRMC,173638.00,A,3819.41911,N,02707.58044,E,15.092,211.04,090524,,,A*55

[2024-05-09 17:17:50.384711] $GPRMC,173639.00,A,3819.41458,N,02707.57469,E,16.013,210.01,090524,,,A*5E

[2024-05-09 17:17:51.389603] $GPRMC,173640.00,A,3819.41043,N,02707.57151,E,15.142,205.35,090524,,,A*55

[2024-05-09 17:17:52.383863] $GPRMC,173641.00,A,3819.40616,N,02707.56875,E,15.041,200.75,090524,,,A*5E

[2024-05-09 17:17:53.383863] $GPRMC,173642.00,A,3819.40146,N,02707.56447,E,16.090,201.31,090524,,,A*5C

[2024-05-09 17:17:54.385443] $GPRMC,173643.00,A,3819.39717,N,02707.56228,E,14.819,195.37,090524,,,A*5D

[2024-05-09 17:17:55.382458] $GPRMC,173644.00,A,3819.39313,N,02707.56080,E,15.154,196.71,090524,,,A*5A

[2024-05-09 17:17:56.382947] $GPRMC,173645.00,A,3819.38985,N,02707.56150,E,13.566,198.19,090524,,,A*50

[2024-05-09 17:17:57.388424] $GPRMC,173646.00,A,3819.38573,N,02707.55978,E,14.192,194.58,090524,,,A*56

[2024-05-09 17:17:58.385113] $GPRMC,173647.00,A,3819.38215,N,02707.55909,E,14.453,205.32,090524,,,A*59

[2024-05-09 17:17:59.809524] $GPRMC,173648.00,A,3819.37843,N,02707.55693,E,14.265,202.00,090524,,,A*59

[2024-05-09 17:18:00.384834] $GPRMC,173649.00,A,3819.37550,N,02707.55756,E,11.257,195.37,090524,,,A*52

[2024-05-09 17:18:01.382798] $GPRMC,173650.00,A,3819.37257,N,02707.55749,E,10.148,187.71,090524,,,A*59

[2024-05-09 17:18:02.384018] $GPRMC,173651.00,A,3819.36963,N,02707.55624,E,9.837,191.04,090524,,,A*63

[2024-05-09 17:18:03.383206] $GPRMC,173652.00,A,3819.36719,N,02707.55509,E,8.683,196.09,090524,,,A*65

[2024-05-09 17:18:04.383854] $GPRMC,173653.00,A,3819.36496,N,02707.55330,E,9.040,199.72,090524,,,A*67

[2024-05-09 17:18:05.382317] $GPRMC,173654.00,A,3819.36350,N,02707.55287,E,7.622,198.92,090524,,,A*63

[2024-05-09 17:18:06.384839] $GPRMC,173655.00,A,3819.36127,N,02707.55190,E,6.107,197.63,090524,,,A*65

[2024-05-09 17:18:07.384213] $GPRMC,173656.00,A,3819.35927,N,02707.55103,E,6.126,190.52,090524,,,A*61

[2024-05-09 17:18:08.384189] $GPRMC,173657.00,A,3819.35730,N,02707.54836,E,5.763,198.46,090524,,,A*6F

[2024-05-09 17:18:09.383751] $GPRMC,173658.00,A,3819.35630,N,02707.54637,E,2.404,,090524,,,A*77

[2024-05-09 17:18:10.385896] $GPRMC,173659.00,A,3819.35647,N,02707.54510,E,2.809,109.76,090524,,,A*66

[2024-05-09 17:18:11.385084] $GPRMC,173700.00,A,3819.35421,N,02707.53475,E,1.521,,090524,,,A*7F

[2024-05-09 17:18:12.385076] $GPRMC,173701.00,A,3819.35468,N,02707.53344,E,3.901,87.81,090524,,,A*52

[2024-05-09 17:18:13.384328] $GPRMC,173702.00,A,3819.35547,N,02707.53217,E,6.120,54.70,090524,,,A*54

[2024-05-09 17:18:14.388540] $GPRMC,173703.00,A,3819.35439,N,02707.52213,E,4.747,27.45,090524,,,A*5F

[2024-05-09 17:18:15.385873] $GPRMC,173704.00,A,3819.35091,N,02707.50182,E,10.537,279.39,090524,,,A*55

[2024-05-09 17:18:16.386264] $GPRMC,173705.00,A,3819.35131,N,02707.49842,E,15.345,272.59,090524,,,A*59

[2024-05-09 17:18:17.384490] $GPRMC,173706.00,A,3819.35107,N,02707.49123,E,16.053,271.85,090524,,,A*54

[2024-05-09 17:18:18.385006] $GPRMC,173707.00,A,3819.35078,N,02707.48323,E,15.328,271.78,090524,,,A*51

[2024-05-09 17:18:19.384962] $GPRMC,173708.00,A,3819.35083,N,02707.47752,E,15.172,269.53,090524,,,A*5A

[2024-05-09 17:18:20.352684] $GPRMC,173709.00,V,,,,,,,090524,,,N*7C

[2024-05-09 17:18:21.390838] $GPRMC,173710.00,A,3819.35473,N,02707.47564,E,10.914,271.52,090524,,,A*5A

[2024-05-09 17:18:22.385158] $GPRMC,173711.00,A,3819.35476,N,02707.47223,E,9.800,273.72,090524,,,A*66

[2024-05-09 17:18:23.384319] $GPRMC,173712.00,A,3819.35507,N,02707.46913,E,11.016,274.04,090524,,,A*5B

[2024-05-09 17:18:24.389216] $GPRMC,173713.00,A,3819.35520,N,02707.46550,E,11.921,273.45,090524,,,A*5B

[2024-05-09 17:18:25.385197] $GPRMC,173714.00,A,3819.35500,N,02707.46101,E,12.027,271.33,090524,,,A*51

[2024-05-09 17:18:26.386035] $GPRMC,173715.00,A,3819.35514,N,02707.45616,E,12.164,271.03,090524,,,A*52

[2024-05-09 17:18:27.393522] $GPRMC,173716.00,A,3819.35561,N,02707.45187,E,11.972,272.90,090524,,,A*59

[2024-05-09 17:18:28.389703] $GPRMC,173717.00,A,3819.35598,N,02707.44783,E,11.929,273.97,090524,,,A*55

[2024-05-09 17:18:29.384777] $GPRMC,173718.00,A,3819.35637,N,02707.44376,E,12.095,274.31,090524,,,A*54

[2024-05-09 17:18:30.387678] $GPRMC,173719.00,A,3819.35675,N,02707.44051,E,11.297,274.67,090524,,,A*55

[2024-05-09 17:18:31.386853] $GPRMC,173720.00,A,3819.35743,N,02707.43823,E,10.691,274.99,090524,,,A*53

[2024-05-09 17:18:32.387052] $GPRMC,173721.00,A,3819.35780,N,02707.43496,E,11.034,274.45,090524,,,A*56

[2024-05-09 17:18:33.388325] $GPRMC,173722.00,A,3819.35734,N,02707.43056,E,12.146,269.57,090524,,,A*5A

[2024-05-09 17:18:34.386043] $GPRMC,173723.00,A,3819.35802,N,02707.42763,E,10.826,275.33,090524,,,A*53

[2024-05-09 17:18:35.385027] $GPRMC,173724.00,A,3819.35859,N,02707.42411,E,10.899,279.42,090524,,,A*52

[2024-05-09 17:18:36.389440] $GPRMC,173725.00,A,3819.35948,N,02707.42088,E,10.765,280.41,090524,,,A*5F

[2024-05-09 17:18:37.384611] $GPRMC,173726.00,A,3819.36020,N,02707.41718,E,11.026,280.03,090524,,,A*52

[2024-05-09 17:18:38.385484] $GPRMC,173727.00,A,3819.36102,N,02707.41353,E,10.387,282.40,090524,,,A*55

[2024-05-09 17:18:39.394670] $GPRMC,173728.00,A,3819.36263,N,02707.41658,E,10.349,282.60,090524,,,A*50

[2024-05-09 17:18:40.387315] $GPRMC,173729.00,A,3819.36379,N,02707.41460,E,10.837,283.98,090524,,,A*56

[2024-05-09 17:18:41.386645] $GPRMC,173730.00,A,3819.36448,N,02707.41029,E,11.216,283.98,090524,,,A*5A

[2024-05-09 17:18:42.388062] $GPRMC,173731.00,A,3819.36555,N,02707.40763,E,11.585,284.47,090524,,,A*56

[2024-05-09 17:18:43.387757] $GPRMC,173732.00,A,3819.36632,N,02707.40383,E,11.580,283.75,090524,,,A*5E

[2024-05-09 17:18:44.390600] $GPRMC,173733.00,A,3819.36665,N,02707.39909,E,11.497,281.90,090524,,,A*55

[2024-05-09 17:18:45.397625] $GPRMC,173734.00,A,3819.36938,N,02707.40125,E,11.984,279.17,090524,,,A*5A

[2024-05-09 17:18:46.393067] $GPRMC,173735.00,A,3819.37017,N,02707.39777,E,12.572,277.83,090524,,,A*54

[2024-05-09 17:18:47.391111] $GPRMC,173736.00,A,3819.37088,N,02707.39466,E,11.711,278.26,090524,,,A*56

[2024-05-09 17:18:48.392464] $GPRMC,173737.00,A,3819.37133,N,02707.39108,E,10.180,278.59,090524,,,A*5C

[2024-05-09 17:18:49.391314] $GPRMC,173738.00,A,3819.37166,N,02707.38807,E,8.349,277.87,090524,,,A*66

[2024-05-09 17:18:50.391771] $GPRMC,173739.00,A,3819.37193,N,02707.38608,E,5.035,277.22,090524,,,A*66

[2024-05-09 17:18:51.392198] $GPRMC,173740.00,A,3819.37211,N,02707.38487,E,4.116,279.84,090524,,,A*67

[2024-05-09 17:18:52.394532] $GPRMC,173741.00,A,3819.37233,N,02707.38292,E,6.041,279.56,090524,,,A*6A

[2024-05-09 17:18:53.393282] $GPRMC,173742.00,A,3819.37271,N,02707.38022,E,8.584,277.59,090524,,,A*65

[2024-05-09 17:18:54.392488] $GPRMC,173743.00,A,3819.37302,N,02707.37677,E,10.816,277.22,090524,,,A*5B

[2024-05-09 17:18:55.393224] $GPRMC,173744.00,A,3819.37353,N,02707.37258,E,12.351,278.36,090524,,,A*51

[2024-05-09 17:18:56.391944] $GPRMC,173745.00,A,3819.37418,N,02707.36829,E,12.405,281.26,090524,,,A*54

[2024-05-09 17:18:57.399698] $GPRMC,173746.00,A,3819.37486,N,02707.36425,E,11.351,281.72,090524,,,A*54

[2024-05-09 17:18:58.393354] $GPRMC,173747.00,A,3819.37546,N,02707.36091,E,9.192,280.89,090524,,,A*62

[2024-05-09 17:18:59.391442] $GPRMC,173748.00,A,3819.37581,N,02707.35771,E,8.444,279.81,090524,,,A*6D

[2024-05-09 17:19:00.389782] $GPRMC,173749.00,A,3819.37609,N,02707.35480,E,7.942,277.33,090524,,,A*61

[2024-05-09 17:19:01.392963] $GPRMC,173750.00,A,3819.37635,N,02707.35175,E,8.395,277.93,090524,,,A*6C

[2024-05-09 17:19:02.395654] $GPRMC,173751.00,A,3819.37684,N,02707.34855,E,9.477,278.94,090524,,,A*6F

[2024-05-09 17:19:03.393948] $GPRMC,173752.00,A,3819.37740,N,02707.34512,E,9.999,281.06,090524,,,A*6B

[2024-05-09 17:19:04.393005] $GPRMC,173753.00,A,3819.37784,N,02707.34162,E,9.899,279.61,090524,,,A*66

[2024-05-09 17:19:05.392864] $GPRMC,173754.00,A,3819.37841,N,02707.33801,E,10.512,280.01,090524,,,A*5A

[2024-05-09 17:19:06.391369] $GPRMC,173755.00,A,3819.37892,N,02707.33429,E,10.632,279.99,090524,,,A*55

[2024-05-09 17:19:07.391046] $GPRMC,173756.00,A,3819.37958,N,02707.33047,E,11.072,281.82,090524,,,A*53

[2024-05-09 17:19:08.393703] $GPRMC,173757.00,A,3819.38057,N,02707.32660,E,11.297,284.51,090524,,,A*5B

[2024-05-09 17:19:09.392396] $GPRMC,173758.00,A,3819.38160,N,02707.32284,E,10.998,287.24,090524,,,A*5B

[2024-05-09 17:19:10.393438] $GPRMC,173759.00,A,3819.38235,N,02707.31915,E,10.672,285.78,090524,,,A*59

[2024-05-09 17:19:11.391862] $GPRMC,173800.00,A,3819.38321,N,02707.31556,E,10.518,285.08,090524,,,A*5D

[2024-05-09 17:19:12.392737] $GPRMC,173801.00,A,3819.38376,N,02707.31232,E,9.297,283.33,090524,,,A*6D

[2024-05-09 17:19:13.392818] $GPRMC,173802.00,A,3819.38428,N,02707.30973,E,7.070,283.23,090524,,,A*69

[2024-05-09 17:19:14.396638] $GPRMC,173803.00,A,3819.38464,N,02707.30781,E,5.055,283.44,090524,,,A*67

[2024-05-09 17:19:15.392014] $GPRMC,173804.00,A,3819.38498,N,02707.30661,E,3.266,287.68,090524,,,A*62

[2024-05-09 17:19:16.392236] $GPRMC,173805.00,A,3819.38542,N,02707.30580,E,2.379,294.43,090524,,,A*6C

[2024-05-09 17:19:17.391251] $GPRMC,173806.00,A,3819.38590,N,02707.30523,E,2.495,305.67,090524,,,A*63

[2024-05-09 17:19:18.393424] $GPRMC,173807.00,A,3819.38644,N,02707.30451,E,3.199,311.18,090524,,,A*69

[2024-05-09 17:19:19.393164] $GPRMC,173808.00,A,3819.38721,N,02707.30358,E,4.561,314.63,090524,,,A*67

[2024-05-09 17:19:20.393775] $GPRMC,173809.00,A,3819.38813,N,02707.30219,E,5.924,315.31,090524,,,A*66

[2024-05-09 17:19:21.392987] $GPRMC,173810.00,A,3819.38950,N,02707.30093,E,6.938,321.16,090524,,,A*64

[2024-05-09 17:19:22.393918] $GPRMC,173811.00,A,3819.39122,N,02707.29968,E,8.278,329.24,090524,,,A*64

[2024-05-09 17:19:23.393119] $GPRMC,173812.00,A,3819.39333,N,02707.29839,E,8.867,328.43,090524,,,A*64

[2024-05-09 17:19:24.393229] $GPRMC,173813.00,A,3819.39466,N,02707.29610,E,8.557,313.75,090524,,,A*64

[2024-05-09 17:19:25.392004] $GPRMC,173814.00,A,3819.39532,N,02707.29332,E,7.259,288.44,090524,,,A*61

[2024-05-09 17:19:26.393707] $GPRMC,173815.00,A,3819.39611,N,02707.29154,E,8.405,270.76,090524,,,A*66

[2024-05-09 17:19:27.396879] $GPRMC,173816.00,A,3819.39527,N,02707.28915,E,8.854,248.45,090524,,,A*6C

[2024-05-09 17:19:28.392260] $GPRMC,173817.00,A,3819.39389,N,02707.28725,E,7.767,235.04,090524,,,A*6D

[2024-05-09 17:19:29.391312] $GPRMC,173818.00,A,3819.39194,N,02707.28554,E,7.427,222.44,090524,,,A*6D

[2024-05-09 17:19:30.392318] $GPRMC,173819.00,A,3819.39026,N,02707.28405,E,7.668,218.00,090524,,,A*61

[2024-05-09 17:19:31.391679] $GPRMC,173820.00,A,3819.38846,N,02707.28290,E,7.320,213.43,090524,,,A*6B

[2024-05-09 17:19:32.393732] $GPRMC,173821.00,A,3819.38649,N,02707.28179,E,7.379,208.17,090524,,,A*68

[2024-05-09 17:19:33.393891] $GPRMC,173822.00,A,3819.38436,N,02707.28082,E,7.995,203.86,090524,,,A*6F

[2024-05-09 17:19:34.391673] $GPRMC,173823.00,A,3819.38228,N,02707.28017,E,7.652,197.69,090524,,,A*60

[2024-05-09 17:19:35.392378] $GPRMC,173824.00,A,3819.37980,N,02707.27943,E,9.040,196.56,090524,,,A*60

[2024-05-09 17:19:36.392978] $GPRMC,173825.00,A,3819.37718,N,02707.27876,E,9.732,194.02,090524,,,A*68

[2024-05-09 17:19:37.392003] $GPRMC,173826.00,A,3819.37447,N,02707.27887,E,10.845,190.73,090524,,,A*59

[2024-05-09 17:19:38.393509] $GPRMC,173827.00,A,3819.37147,N,02707.27898,E,11.104,184.41,090524,,,A*5A

[2024-05-09 17:19:39.394439] $GPRMC,173828.00,A,3819.36854,N,02707.27957,E,10.953,176.75,090524,,,A*5C

[2024-05-09 17:19:40.393635] $GPRMC,173829.00,A,3819.36552,N,02707.27976,E,10.771,175.96,090524,,,A*55

[2024-05-09 17:19:41.394666] $GPRMC,173830.00,A,3819.36256,N,02707.27991,E,11.108,178.24,090524,,,A*5A

[2024-05-09 17:19:42.393995] $GPRMC,173831.00,A,3819.35966,N,02707.27988,E,10.678,179.87,090524,,,A*51

[2024-05-09 17:19:43.393111] $GPRMC,173832.00,A,3819.35659,N,02707.28050,E,11.418,178.58,090524,,,A*54

[2024-05-09 17:19:44.394485] $GPRMC,173833.00,A,3819.35334,N,02707.28111,E,12.005,177.75,090524,,,A*54

[2024-05-09 17:19:45.396717] $GPRMC,173834.00,A,3819.35011,N,02707.28170,E,11.922,177.43,090524,,,A*5A

[2024-05-09 17:19:46.394663] $GPRMC,173835.00,A,3819.34698,N,02707.28227,E,11.161,177.18,090524,,,A*5D

[2024-05-09 17:19:47.392188] $GPRMC,173836.00,A,3819.34405,N,02707.28320,E,10.417,175.51,090524,,,A*54

[2024-05-09 17:19:48.392461] $GPRMC,173837.00,A,3819.34138,N,02707.28378,E,9.627,174.71,090524,,,A*69

[2024-05-09 17:19:49.392078] $GPRMC,173838.00,A,3819.33878,N,02707.28411,E,9.551,175.75,090524,,,A*63

[2024-05-09 17:19:50.393476] $GPRMC,173839.00,A,3819.33564,N,02707.28464,E,12.072,174.14,090524,,,A*58

[2024-05-09 17:19:51.392838] $GPRMC,173840.00,A,3819.33183,N,02707.28533,E,14.310,173.70,090524,,,A*5C

[2024-05-09 17:19:52.393424] $GPRMC,173841.00,A,3819.32756,N,02707.28588,E,15.466,174.88,090524,,,A*55

[2024-05-09 17:19:53.392518] $GPRMC,173842.00,A,3819.32300,N,02707.28638,E,16.774,175.80,090524,,,A*53

[2024-05-09 17:19:54.392827] $GPRMC,173843.00,A,3819.31828,N,02707.28670,E,17.162,178.17,090524,,,A*5F

[2024-05-09 17:19:55.392277] $GPRMC,173844.00,A,3819.31363,N,02707.28695,E,16.624,179.61,090524,,,A*53

[2024-05-09 17:19:56.393626] $GPRMC,173845.00,A,3819.30917,N,02707.28709,E,16.064,179.80,090524,,,A*53

[2024-05-09 17:19:57.399376] $GPRMC,173846.00,A,3819.30458,N,02707.28734,E,16.685,177.30,090524,,,A*54

[2024-05-09 17:19:58.391684] $GPRMC,173847.00,A,3819.29982,N,02707.28754,E,17.251,178.31,090524,,,A*53

[2024-05-09 17:19:59.388979] $GPRMC,173848.00,A,3819.29481,N,02707.28731,E,18.179,181.23,090524,,,A*52

[2024-05-09 17:20:00.393896] $GPRMC,173849.00,A,3819.28977,N,02707.28744,E,18.397,179.09,090524,,,A*59

[2024-05-09 17:20:01.391879] $GPRMC,173850.00,A,3819.28470,N,02707.28752,E,18.121,179.31,090524,,,A*58

[2024-05-09 17:20:02.393582] $GPRMC,173851.00,A,3819.27991,N,02707.28760,E,16.921,179.88,090524,,,A*51

[2024-05-09 17:20:03.408091] $GPRMC,173852.00,A,3819.27513,N,02707.28718,E,15.864,179.88,090524,,,A*58

[2024-05-09 17:20:04.399724] $GPRMC,173853.00,A,3819.27062,N,02707.28694,E,15.396,180.13,090524,,,A*5D

[2024-05-09 17:20:05.398223] $GPRMC,173854.00,A,3819.26633,N,02707.28647,E,14.623,182.71,090524,,,A*5B

[2024-05-09 17:20:06.399444] $GPRMC,173855.00,A,3819.26223,N,02707.28584,E,14.542,186.69,090524,,,A*5A

[2024-05-09 17:20:07.398262] $GPRMC,173856.00,A,3819.25814,N,02707.28510,E,14.581,186.51,090524,,,A*5D

[2024-05-09 17:20:08.397712] $GPRMC,173857.00,A,3819.25418,N,02707.28466,E,14.017,185.10,090524,,,A*50

[2024-05-09 17:20:09.398052] $GPRMC,173858.00,A,3819.25058,N,02707.28427,E,12.607,189.01,090524,,,A*57

[2024-05-09 17:20:10.397557] $GPRMC,173859.00,A,3819.24776,N,02707.28317,E,10.149,197.41,090524,,,A*5C

[2024-05-09 17:20:11.396507] $GPRMC,173900.00,A,3819.24579,N,02707.28154,E,8.069,212.56,090524,,,A*6B

[2024-05-09 17:20:12.397107] $GPRMC,173901.00,A,3819.24420,N,02707.27886,E,8.820,233.67,090524,,,A*6A

[2024-05-09 17:20:13.397158] $GPRMC,173902.00,A,3819.24299,N,02707.27562,E,10.832,246.15,090524,,,A*57

[2024-05-09 17:20:14.400637] $GPRMC,173903.00,A,3819.24203,N,02707.27148,E,12.312,255.45,090524,,,A*55

[2024-05-09 17:20:15.397443] $GPRMC,173904.00,A,3819.24114,N,02707.26660,E,14.162,258.44,090524,,,A*54

[2024-05-09 17:20:16.397724] $GPRMC,173905.00,A,3819.24032,N,02707.26112,E,16.165,260.10,090524,,,A*5D

[2024-05-09 17:20:17.397613] $GPRMC,173906.00,A,3819.23960,N,02707.25507,E,17.886,260.76,090524,,,A*51

[2024-05-09 17:20:18.397841] $GPRMC,173907.00,A,3819.23893,N,02707.24848,E,19.239,262.11,090524,,,A*59

[2024-05-09 17:20:19.397697] $GPRMC,173908.00,A,3819.23822,N,02707.24134,E,20.714,263.09,090524,,,A*56

[2024-05-09 17:20:20.398546] $GPRMC,173909.00,A,3819.23748,N,02707.23379,E,21.692,263.30,090524,,,A*5C

[2024-05-09 17:20:21.398919] $GPRMC,173910.00,A,3819.23674,N,02707.22608,E,21.810,263.68,090524,,,A*51

[2024-05-09 17:20:22.397672] $GPRMC,173911.00,A,3819.23610,N,02707.21830,E,21.971,264.50,090524,,,A*5E

[2024-05-09 17:20:23.395442] $GPRMC,173912.00,A,3819.23551,N,02707.21048,E,21.951,264.69,090524,,,A*54

[2024-05-09 17:20:24.397966] $GPRMC,173913.00,A,3819.23492,N,02707.20290,E,21.163,264.51,090524,,,A*5F

[2024-05-09 17:20:25.398883] $GPRMC,173914.00,A,3819.23436,N,02707.19589,E,19.303,264.32,090524,,,A*59

[2024-05-09 17:20:26.398828] $GPRMC,173915.00,A,3819.23393,N,02707.18965,E,17.049,266.08,090524,,,A*57

[2024-05-09 17:20:27.403356] $GPRMC,173916.00,A,3819.23390,N,02707.18422,E,14.324,271.49,090524,,,A*51

[2024-05-09 17:20:28.399033] $GPRMC,173917.00,A,3819.23457,N,02707.17998,E,11.583,285.96,090524,,,A*58

[2024-05-09 17:20:29.398633] $GPRMC,173918.00,A,3819.23614,N,02707.17650,E,10.592,299.27,090524,,,A*5F

[2024-05-09 17:20:30.399021] $GPRMC,173919.00,A,3819.23827,N,02707.17402,E,10.194,310.18,090524,,,A*5B

[2024-05-09 17:20:31.397835] $GPRMC,173920.00,A,3819.24133,N,02707.17282,E,11.855,336.07,090524,,,A*5B

[2024-05-09 17:20:32.401086] $GPRMC,173921.00,A,3819.24504,N,02707.17207,E,14.269,352.00,090524,,,A*52

[2024-05-09 17:20:33.409071] $GPRMC,173922.00,A,3819.24920,N,02707.17189,E,15.789,358.39,090524,,,A*54

[2024-05-09 17:20:34.400758] $GPRMC,173923.00,A,3819.25381,N,02707.17185,E,17.202,359.00,090524,,,A*56

[2024-05-09 17:20:35.400157] $GPRMC,173924.00,A,3819.25886,N,02707.17183,E,18.359,358.94,090524,,,A*57

[2024-05-09 17:20:36.400186] $GPRMC,173925.00,A,3819.26411,N,02707.17164,E,19.510,359.09,090524,,,A*51

[2024-05-09 17:20:37.399854] $GPRMC,173926.00,A,3819.26978,N,02707.17157,E,20.803,359.59,090524,,,A*50

[2024-05-09 17:20:38.400428] $GPRMC,173927.00,A,3819.27582,N,02707.17158,E,22.061,359.88,090524,,,A*54

[2024-05-09 17:20:39.402365] $GPRMC,173928.00,A,3819.28209,N,02707.17154,E,23.043,0.20,090524,,,A*50

[2024-05-09 17:20:40.400289] $GPRMC,173929.00,A,3819.28856,N,02707.17155,E,23.591,0.11,090524,,,A*58

[2024-05-09 17:20:41.399922] $GPRMC,173930.00,A,3819.29509,N,02707.17153,E,23.646,0.03,090524,,,A*5A

[2024-05-09 17:20:42.400323] $GPRMC,173931.00,A,3819.30162,N,02707.17149,E,23.580,359.73,090524,,,A*50

[2024-05-09 17:20:43.399397] $GPRMC,173932.00,A,3819.30805,N,02707.17144,E,23.264,359.50,090524,,,A*5A

[2024-05-09 17:20:44.400175] $GPRMC,173933.00,A,3819.31421,N,02707.17133,E,22.212,359.40,090524,,,A*51

[2024-05-09 17:20:45.402541] $GPRMC,173934.00,A,3819.32015,N,02707.17125,E,21.204,359.33,090524,,,A*51

[2024-05-09 17:20:46.400919] $GPRMC,173935.00,A,3819.32570,N,02707.17119,E,19.853,359.52,090524,,,A*5D

[2024-05-09 17:20:47.400150] $GPRMC,173936.00,A,3819.33052,N,02707.17116,E,16.947,359.98,090524,,,A*58

[2024-05-09 17:20:48.401538] $GPRMC,173937.00,A,3819.33452,N,02707.17114,E,13.535,359.72,090524,,,A*57

[2024-05-09 17:20:49.400615] $GPRMC,173938.00,A,3819.33808,N,02707.17108,E,12.594,359.34,090524,,,A*5E

[2024-05-09 17:20:50.405386] $GPRMC,173939.00,A,3819.34153,N,02707.17100,E,12.327,358.67,090524,,,A*5E

[2024-05-09 17:20:51.402171] $GPRMC,173940.00,A,3819.34506,N,02707.17091,E,12.818,358.42,090524,,,A*5D

[2024-05-09 17:20:52.402495] $GPRMC,173941.00,A,3819.34894,N,02707.17079,E,14.401,358.04,090524,,,A*5C

[2024-05-09 17:20:53.404547] $GPRMC,173942.00,A,3819.35310,N,02707.17067,E,15.124,358.41,090524,,,A*54

[2024-05-09 17:20:54.400680] $GPRMC,173943.00,A,3819.35741,N,02707.17054,E,15.669,358.94,090524,,,A*53

[2024-05-09 17:20:55.404537] $GPRMC,173944.00,A,3819.36174,N,02707.17054,E,15.513,359.85,090524,,,A*58

[2024-05-09 17:20:56.404545] $GPRMC,173945.00,A,3819.36601,N,02707.17054,E,15.366,0.09,090524,,,A*53

[2024-05-09 17:20:57.410326] $GPRMC,173946.00,A,3819.37039,N,02707.17050,E,15.819,359.40,090524,,,A*59

[2024-05-09 17:20:58.402481] $GPRMC,173947.00,A,3819.37488,N,02707.17043,E,16.252,359.47,090524,,,A*55

[2024-05-09 17:20:59.402630] $GPRMC,173948.00,A,3819.37942,N,02707.17038,E,16.318,359.44,090524,,,A*51

[2024-05-09 17:21:00.402823] $GPRMC,173949.00,A,3819.38386,N,02707.17033,E,15.855,359.42,090524,,,A*51

[2024-05-09 17:21:01.400868] $GPRMC,173950.00,A,3819.38807,N,02707.17031,E,15.003,359.81,090524,,,A*5D

[2024-05-09 17:21:02.401403] $GPRMC,173951.00,A,3819.39192,N,02707.17030,E,13.428,359.63,090524,,,A*5E

[2024-05-09 17:21:03.411012] $GPRMC,173952.00,A,3819.39569,N,02707.17035,E,13.033,359.21,090524,,,A*50

[2024-05-09 17:21:04.404789] $GPRMC,173953.00,A,3819.39894,N,02707.17047,E,11.031,1.45,090524,,,A*57

[2024-05-09 17:21:05.402590] $GPRMC,173954.00,A,3819.40144,N,02707.17103,E,8.238,12.56,090524,,,A*58

[2024-05-09 17:21:06.402638] $GPRMC,173955.00,A,3819.40339,N,02707.17244,E,7.670,34.16,090524,,,A*56

[2024-05-09 17:21:07.401699] $GPRMC,173956.00,A,3819.40494,N,02707.17445,E,7.496,49.29,090524,,,A*5E

[2024-05-09 17:21:08.399804] $GPRMC,173957.00,A,3819.40584,N,02707.17701,E,7.952,70.16,090524,,,A*5F

[2024-05-09 17:21:09.400766] $GPRMC,173958.00,A,3819.40619,N,02707.17996,E,8.463,80.57,090524,,,A*5D

[2024-05-09 17:21:10.401947] $GPRMC,173959.00,A,3819.40647,N,02707.18318,E,9.188,83.21,090524,,,A*57

[2024-05-09 17:21:11.401614] $GPRMC,174000.00,A,3819.40695,N,02707.18658,E,9.459,80.03,090524,,,A*51

[2024-05-09 17:21:12.402951] $GPRMC,174001.00,A,3819.40758,N,02707.19009,E,9.761,78.29,090524,,,A*54

[2024-05-09 17:21:13.401495] $GPRMC,174002.00,A,3819.40814,N,02707.19361,E,10.212,77.85,090524,,,A*6D

[2024-05-09 17:21:14.409196] $GPRMC,174003.00,A,3819.40877,N,02707.19716,E,10.426,76.68,090524,,,A*6E

[2024-05-09 17:21:15.404846] $GPRMC,174004.00,A,3819.40956,N,02707.20068,E,10.222,73.88,090524,,,A*66

[2024-05-09 17:21:16.400445] $GPRMC,174005.00,A,3819.41037,N,02707.20390,E,9.123,72.25,090524,,,A*50

[2024-05-09 17:21:17.404752] $GPRMC,174006.00,A,3819.41132,N,02707.20685,E,9.274,68.63,090524,,,A*5E

[2024-05-09 17:21:18.402149] $GPRMC,174007.00,A,3819.41235,N,02707.20986,E,9.614,67.31,090524,,,A*5D

[2024-05-09 17:21:19.400889] $GPRMC,174008.00,A,3819.41354,N,02707.21295,E,9.968,64.85,090524,,,A*54

[2024-05-09 17:21:20.401701] $GPRMC,174009.00,A,3819.41492,N,02707.21633,E,11.350,63.88,090524,,,A*62

[2024-05-09 17:21:21.398096] $GPRMC,174010.00,A,3819.41645,N,02707.22024,E,13.073,64.90,090524,,,A*6F

[2024-05-09 17:21:22.398674] $GPRMC,174011.00,A,3819.41800,N,02707.22469,E,14.204,67.37,090524,,,A*67

[2024-05-09 17:21:23.399200] $GPRMC,174012.00,A,3819.41942,N,02707.22937,E,14.386,69.81,090524,,,A*6D

[2024-05-09 17:21:24.399683] $GPRMC,174013.00,A,3819.42071,N,02707.23409,E,14.245,71.75,090524,,,A*6B

[2024-05-09 17:21:25.402254] $GPRMC,174014.00,A,3819.42188,N,02707.23885,E,14.182,73.40,090524,,,A*6F

[2024-05-09 17:21:26.401095] $GPRMC,174015.00,A,3819.42293,N,02707.24344,E,13.376,74.20,090524,,,A*69

[2024-05-09 17:21:27.409764] $GPRMC,174016.00,A,3819.42377,N,02707.24806,E,13.277,77.87,090524,,,A*62

[2024-05-09 17:21:28.399841] $GPRMC,174017.00,A,3819.42442,N,02707.25236,E,12.177,78.81,090524,,,A*61

[2024-05-09 17:21:29.400830] $GPRMC,174018.00,A,3819.42485,N,02707.25639,E,11.148,82.76,090524,,,A*6C

[2024-05-09 17:21:30.400492] $GPRMC,174019.00,A,3819.42492,N,02707.26012,E,10.165,87.90,090524,,,A*64

[2024-05-09 17:21:31.402646] $GPRMC,174020.00,A,3819.42431,N,02707.26352,E,9.994,101.01,090524,,,A*69

[2024-05-09 17:21:32.402405] $GPRMC,174021.00,A,3819.42331,N,02707.26693,E,9.542,111.34,090524,,,A*67

[2024-05-09 17:21:33.402358] $GPRMC,174022.00,A,3819.42192,N,02707.27004,E,9.950,117.55,090524,,,A*68

[2024-05-09 17:21:34.398497] $GPRMC,174023.00,A,3819.42019,N,02707.27301,E,10.497,126.12,090524,,,A*52

[2024-05-09 17:21:35.405190] $GPRMC,174024.00,A,3819.41802,N,02707.27590,E,11.394,135.51,090524,,,A*5A

[2024-05-09 17:21:36.405725] $GPRMC,174025.00,A,3819.41569,N,02707.27878,E,11.643,137.99,090524,,,A*59

[2024-05-09 17:21:37.408176] $GPRMC,174026.00,A,3819.41332,N,02707.28138,E,11.200,140.17,090524,,,A*55

[2024-05-09 17:21:38.408392] $GPRMC,174027.00,A,3819.41111,N,02707.28390,E,10.337,141.28,090524,,,A*5E

[2024-05-09 17:21:39.407789] $GPRMC,174028.00,A,3819.40923,N,02707.28585,E,8.422,142.05,090524,,,A*6D

[2024-05-09 17:21:40.402331] $GPRMC,174029.00,A,3819.40747,N,02707.28735,E,7.526,145.60,090524,,,A*67

[2024-05-09 17:21:41.401466] $GPRMC,174030.00,A,3819.40562,N,02707.28845,E,7.206,150.51,090524,,,A*61

[2024-05-09 17:21:42.407999] $GPRMC,174031.00,A,3819.40372,N,02707.28929,E,6.747,157.85,090524,,,A*63

[2024-05-09 17:21:43.402461] $GPRMC,174032.00,A,3819.40195,N,02707.28976,E,6.514,166.87,090524,,,A*65

[2024-05-09 17:21:44.402403] $GPRMC,174033.00,A,3819.40027,N,02707.28992,E,6.077,174.96,090524,,,A*65

[2024-05-09 17:21:45.409311] $GPRMC,174034.00,A,3819.39858,N,02707.28979,E,5.901,181.17,090524,,,A*61

[2024-05-09 17:21:46.407837] $GPRMC,174035.00,A,3819.39670,N,02707.28927,E,7.071,189.78,090524,,,A*62

[2024-05-09 17:21:47.400941] $GPRMC,174036.00,A,3819.39451,N,02707.28833,E,8.557,196.02,090524,,,A*69

[2024-05-09 17:21:48.401535] $GPRMC,174037.00,A,3819.39215,N,02707.28673,E,9.482,207.48,090524,,,A*69

[2024-05-09 17:21:49.400185] $GPRMC,174038.00,A,3819.38977,N,02707.28508,E,9.576,208.12,090524,,,A*6D

[2024-05-09 17:21:50.400016] $GPRMC,174039.00,A,3819.38721,N,02707.28319,E,10.420,208.62,090524,,,A*5A

[2024-05-09 17:21:51.399057] $GPRMC,174040.00,A,3819.38451,N,02707.28146,E,10.517,205.18,090524,,,A*5D

[2024-05-09 17:21:52.399879] $GPRMC,174041.00,A,3819.38174,N,02707.28026,E,10.398,200.88,090524,,,A*54

[2024-05-09 17:21:53.400280] $GPRMC,174042.00,A,3819.37888,N,02707.27929,E,10.506,197.59,090524,,,A*5B

[2024-05-09 17:21:54.402447] $GPRMC,174043.00,A,3819.37587,N,02707.27840,E,11.307,193.97,090524,,,A*56

[2024-05-09 17:21:55.399533] $GPRMC,174044.00,A,3819.37265,N,02707.27781,E,12.010,189.04,090524,,,A*5F

[2024-05-09 17:21:56.401319] $GPRMC,174045.00,A,3819.36921,N,02707.27760,E,12.347,182.17,090524,,,A*53

[2024-05-09 17:21:57.406458] $GPRMC,174046.00,A,3819.36566,N,02707.27800,E,12.803,176.64,090524,,,A*52

[2024-05-09 17:21:58.401907] $GPRMC,174047.00,A,3819.36202,N,02707.27858,E,13.376,174.12,090524,,,A*50

[2024-05-09 17:21:59.405689] $GPRMC,174048.00,A,3819.35835,N,02707.27894,E,13.200,174.42,090524,,,A*57

[2024-05-09 17:22:00.407443] $GPRMC,174049.00,A,3819.35473,N,02707.27955,E,12.868,175.61,090524,,,A*51

[2024-05-09 17:22:01.403521] $GPRMC,174050.00,A,3819.35125,N,02707.27993,E,12.330,176.56,090524,,,A*54

[2024-05-09 17:22:02.403733] $GPRMC,174051.00,A,3819.34799,N,02707.28045,E,11.544,175.26,090524,,,A*5A

[2024-05-09 17:22:03.409748] $GPRMC,174052.00,A,3819.34503,N,02707.28075,E,10.584,175.63,090524,,,A*57

[2024-05-09 17:22:04.403739] $GPRMC,174053.00,A,3819.34221,N,02707.28158,E,9.552,174.17,090524,,,A*6E

[2024-05-09 17:22:05.402927] $GPRMC,174054.00,A,3819.33958,N,02707.28218,E,9.343,173.93,090524,,,A*61

[2024-05-09 17:22:06.403740] $GPRMC,174055.00,A,3819.33664,N,02707.28266,E,11.134,173.96,090524,,,A*57

[2024-05-09 17:22:07.400113] $GPRMC,174056.00,A,3819.33329,N,02707.28320,E,12.323,173.31,090524,,,A*51

[2024-05-09 17:22:08.403602] $GPRMC,174057.00,A,3819.32949,N,02707.28383,E,13.755,174.56,090524,,,A*56

[2024-05-09 17:22:09.403388] $GPRMC,174058.00,A,3819.32540,N,02707.28437,E,14.938,174.74,090524,,,A*56

[2024-05-09 17:22:10.408308] $GPRMC,174059.00,A,3819.32104,N,02707.28487,E,15.861,176.42,090524,,,A*53

[2024-05-09 17:22:11.403871] $GPRMC,174100.00,A,3819.31644,N,02707.28508,E,16.741,177.76,090524,,,A*50

[2024-05-09 17:22:12.405652] $GPRMC,174101.00,A,3819.31173,N,02707.28514,E,16.963,179.64,090524,,,A*5C

[2024-05-09 17:22:13.407802] $GPRMC,174102.00,A,3819.30691,N,02707.28525,E,17.326,179.66,090524,,,A*5F

[2024-05-09 17:22:14.406229] $GPRMC,174103.00,A,3819.30209,N,02707.28526,E,17.260,179.52,090524,,,A*5C

[2024-05-09 17:22:15.400239] $GPRMC,174104.00,A,3819.29731,N,02707.28536,E,17.292,178.77,090524,,,A*57

[2024-05-09 17:22:16.401363] $GPRMC,174105.00,A,3819.29233,N,02707.28553,E,17.746,178.76,090524,,,A*5F

[2024-05-09 17:22:17.403983] $GPRMC,174106.00,A,3819.28742,N,02707.28569,E,17.791,179.03,090524,,,A*5E

[2024-05-09 17:22:18.408049] $GPRMC,174107.00,A,3819.28253,N,02707.28601,E,17.633,178.23,090524,,,A*5D

[2024-05-09 17:22:19.407837] $GPRMC,174108.00,A,3819.27788,N,02707.28621,E,16.460,178.68,090524,,,A*56

[2024-05-09 17:22:20.405776] $GPRMC,174109.00,A,3819.27346,N,02707.28620,E,15.765,179.61,090524,,,A*5D

[2024-05-09 17:22:21.400716] $GPRMC,174107.00,A,3819.26926,N,02707.28621,E,14.924,180.01,090524,,,A*55

[2024-05-09 17:22:22.399036] $GPRMC,174108.00,A,3819.26537,N,02707.28633,E,13.702,180.41,090524,,,A*5C

[2024-05-09 17:22:23.400970] $GPRMC,174109.00,A,3819.26178,N,02707.28585,E,12.845,184.47,090524,,,A*53

[2024-05-09 17:22:24.401989] $GPRMC,174110.00,A,3819.25822,N,02707.28527,E,13.105,185.84,090524,,,A*54

[2024-05-09 17:22:25.403957] $GPRMC,174111.00,A,3819.25458,N,02707.28480,E,13.043,185.27,090524,,,A*52

[2024-05-09 17:22:26.408738] $GPRMC,174112.00,A,3819.25114,N,02707.28438,E,12.270,184.86,090524,,,A*56

[2024-05-09 17:22:27.410151] $GPRMC,174113.00,A,3819.24812,N,02707.28359,E,10.761,189.82,090524,,,A*57

[2024-05-09 17:22:28.404338] $GPRMC,174114.00,A,3819.24576,N,02707.28222,E,8.713,204.58,090524,,,A*6F

[2024-05-09 17:22:29.401019] $GPRMC,174115.00,A,3819.24402,N,02707.28030,E,7.995,220.95,090524,,,A*65

[2024-05-09 17:22:30.404205] $GPRMC,174116.00,A,3819.24261,N,02707.27740,E,9.919,239.17,090524,,,A*62

[2024-05-09 17:22:31.402881] $GPRMC,174117.00,A,3819.24161,N,02707.27364,E,11.464,253.50,090524,,,A*53

[2024-05-09 17:22:32.405926] $GPRMC,174118.00,A,3819.24089,N,02707.26924,E,12.834,259.52,090524,,,A*56

[2024-05-09 17:22:33.407075] $GPRMC,174119.00,A,3819.24024,N,02707.26432,E,14.385,261.01,090524,,,A*50

[2024-05-09 17:22:34.402101] $GPRMC,174120.00,A,3819.23960,N,02707.25900,E,15.423,261.53,090524,,,A*56

[2024-05-09 17:22:35.401696] $GPRMC,174121.00,A,3819.23891,N,02707.25324,E,16.601,261.56,090524,,,A*50

[2024-05-09 17:22:36.401926] $GPRMC,174122.00,A,3819.23819,N,02707.24712,E,17.642,261.78,090524,,,A*59

[2024-05-09 17:22:37.401547] $GPRMC,174123.00,A,3819.23749,N,02707.24064,E,18.637,262.65,090524,,,A*56

[2024-05-09 17:22:38.403321] $GPRMC,174124.00,A,3819.23683,N,02707.23380,E,19.708,263.20,090524,,,A*54

[2024-05-09 17:22:39.404071] $GPRMC,174125.00,A,3819.23613,N,02707.22667,E,20.443,263.34,090524,,,A*52

[2024-05-09 17:22:40.403030] $GPRMC,174126.00,A,3819.23545,N,02707.21934,E,20.908,263.70,090524,,,A*59

[2024-05-09 17:22:41.402173] $GPRMC,174127.00,A,3819.23480,N,02707.21199,E,20.871,263.86,090524,,,A*59

[2024-05-09 17:22:42.404293] $GPRMC,174128.00,A,3819.23419,N,02707.20486,E,19.787,263.99,090524,,,A*5E

[2024-05-09 17:22:43.402237] $GPRMC,174129.00,A,3819.23361,N,02707.19822,E,18.158,263.82,090524,,,A*50

[2024-05-09 17:22:44.402974] $GPRMC,174130.00,A,3819.23315,N,02707.19203,E,17.083,265.26,090524,,,A*52

[2024-05-09 17:22:45.413192] $GPRMC,174131.00,A,3819.23298,N,02707.18650,E,15.083,268.21,090524,,,A*5C

[2024-05-09 17:22:46.404129] $GPRMC,174132.00,A,3819.23322,N,02707.18188,E,12.361,276.81,090524,,,A*50

[2024-05-09 17:22:47.404363] $GPRMC,174133.00,A,3819.23419,N,02707.17797,E,11.058,288.34,090524,,,A*5C

[2024-05-09 17:22:48.406057] $GPRMC,174134.00,A,3819.23602,N,02707.17502,E,10.320,307.94,090524,,,A*5C

[2024-05-09 17:22:49.404222] $GPRMC,174135.00,A,3819.23862,N,02707.17298,E,11.490,332.35,090524,,,A*51

[2024-05-09 17:22:50.406600] $GPRMC,174136.00,A,3819.24194,N,02707.17188,E,12.939,348.48,090524,,,A*5D

[2024-05-09 17:22:51.404284] $GPRMC,174137.00,A,3819.24582,N,02707.17147,E,14.427,355.30,090524,,,A*5B

[2024-05-09 17:22:52.406783] $GPRMC,174138.00,A,3819.25012,N,02707.17125,E,15.864,358.70,090524,,,A*5E

[2024-05-09 17:22:53.404803] $GPRMC,174139.00,A,3819.25475,N,02707.17121,E,17.037,359.25,090524,,,A*53

[2024-05-09 17:22:54.408467] $GPRMC,174140.00,A,3819.25964,N,02707.17117,E,17.853,359.53,090524,,,A*5E

[2024-05-09 17:22:55.408543] $GPRMC,174141.00,A,3819.26474,N,02707.17113,E,18.587,359.86,090524,,,A*57

[2024-05-09 17:22:56.409535] $GPRMC,174142.00,A,3819.27005,N,02707.17114,E,19.278,0.21,090524,,,A*54

[2024-05-09 17:22:57.410634] $GPRMC,174143.00,A,3819.27548,N,02707.17116,E,19.612,0.14,090524,,,A*55

[2024-05-09 17:22:58.407295] $GPRMC,174144.00,A,3819.28095,N,02707.17118,E,19.616,0.02,090524,,,A*55

[2024-05-09 17:22:59.408888] $GPRMC,174145.00,A,3819.28620,N,02707.17120,E,18.480,0.34,090524,,,A*5E

[2024-05-09 17:23:00.409791] $GPRMC,174146.00,A,3819.29080,N,02707.17128,E,15.747,1.03,090524,,,A*58

[2024-05-09 17:23:01.406980] $GPRMC,174147.00,A,3819.29502,N,02707.17142,E,14.815,1.44,090524,,,A*50

[2024-05-09 17:23:02.408318] $GPRMC,174148.00,A,3819.29908,N,02707.17150,E,14.489,0.47,090524,,,A*51

[2024-05-09 17:23:03.409607] $GPRMC,174149.00,A,3819.30328,N,02707.17147,E,15.161,359.29,090524,,,A*53

