[2024-05-07 11:57:46.384999] $GPRMC,085741.00,A,3820.12885,N,$GPRMC,085741.00,A,3820.12885,N,$GPRMC,085741.00,A,3820.12885,N,$GPRMC,085741.00,A,3820.12885,N,$GPRMC,085741.00,A,3820.12885,N,$GPRMC,085741.00,A,3820.12885,N,$GPRMC,085741.00,A,3820.12885,N,$GPRMC,085741.00,A,3820.12885,N,$GPRMC,085741.00,A,3820.12885,N,$GPRMC,085741.00,A,3820.12885,N,$GPRMC,085741.00,A,3820.12885,N,$GPRMC,085741.00,A,3820.12885,N,$GPRMC,085741.00,A,3820.12885,N,$GPRMC,085741.00,A,3820.12885,N,$GPRMC,085741.00,A,3820.12885,N,$GPRMC,085741.00,A,3820.12885,N,$GPRMC,085741.00,A,3820.12885,N,$GPRMC,085741.00,A,3820.12885,N,$GPRMC,085741.00,A,3820.12885,N,$GPRMC,085741.00,A,3820.12885,N,$GPRMC,085741.00,A,3820.12885,N,$GPRMC,085741.00,A,3820.12885,N,$GPRMC,085741.00,A,3820.12885,N,$GPRMC,085741.00,A,3820.12885,N,$GPRMC,085741.00,A,3820.12885,N,$GPRMC,085741.00,A,3820.12885,N,$GPRMC,085741.00,A,3820.12885,N,$GPRMC,085741.00,A,3820.12885,N,$GPRMC,085741.00,A,3820.12885,N,$GPRMC,085741.00,A,3820.12885,N,$GPRMC,085741.00,A,3820.12885,N,$GPRMC,085741.00,A,3820.12885,N,$GPRMC,085741.00,A,3820.12885,N,$GPRMC,085741.00,A,3820.12885,N,$GPRMC,085741.00,A,3820.12885,N,$GPRMC,085741.00,A,3820.12885,N,$GPRMC,085741.00,A,3820.12885,N,$GPRMC,085741.00,A,3820.12885,N,$GPRMC,085741.00,A,3820.12885,N,$GPRMC,085741.00,A,3820.12885,N,$GPRMC,085741.00,A,3820.12885,N,$GPRMC,085741.00,A,3820.12885,N,$GPRMC,085741.00,A,3820.12885,N,$GPRMC,085741.00,A,3820.12885,N,$GPRMC,085741.00,A,3820.12885,N,$GPRMC,085741.00,A,3820.12885,N,$GPRMC,085741.00,A,3820.12885,N,$GPRMC,085741.00,A,3820.12885,N,$GPRMC,085741.00,A,3820.12885,N,$GPRMC,085741.00,A,3820.12885,N,$GPRMC,085741.00,A,3820.12885,N,$GPRMC,085741.00,A,3820.12885,N,$GPRMC,085741.00,A,3820.12885,N,$GPRMC,085741.00,A,3820.12885,N,$GPRMC,085741.00,A,3820.12885,N,$GPRMC,085741.00,A,3820.12885,N,$GPRMC,085741.00,A,3820.12885,N,$GPRMC,085741.00,A,3820.12885,N,$GPRMC,085741.00,A,3820.12885,N,$GPRMC,085741.00,A,3820.12885,N,$GPRMC,085741.00,A,3820.12885,N,$GPRMC,085741.00,A,3820.12885,N,$GPRMC,085741.00,A,3820.12885,N,$GPRMC,085741.00,A,3820.12885,N,$GPRMC,085741.00,A,3820.12885,N,$GPRMC,085741.00,A,3820.12885,N,$GPRMC,085741.00,A,3820.12885,N,$GPRMC,085741.00,A,3820.12885,N,$GPRMC,085741.00,A,3820.12885,N,$GPRMC,085741.00,A,3820.12885,N,$GPRMC,085741.00,A,3820.12885,N,$GPRMC,085741.00,A,3820.12885,N,$GPRMC,085741.00,A,3820.12885,N,$GPRMC,085741.00,A,3820.12885,N,$GPRMC,085741.00,A,3820.12885,N,$GPRMC,085741.00,A,3820.12885,N,$GPRMC,085741.00,A,3820.12885,N,$GPRMC,085741.00,A,3820.12885,N,$GPRMC,085741.00,A,3820.12885,N,$GPRMC,085741.00,A,3820.12885,N,$GPRMC,085741.00,A,3820.12885,N,$GPRMC,085741.00,A,3820.12885,N,$GPRMC,085741.00,A,3820.12885,N,$GPRMC,085741.00,A,3820.12885,N,$GPRMC,085741.00,A,3820.12885,N,$GPRMC,085741.00,A,3820.12885,N,$GPRMC,085741.00,A,3820.12885,N,$GPRMC,085741.00,A,3820.12885,N,$GPRMC,085741.00,A,3820.12885,N,$GPRMC,085741.00,A,3820.12885,N,$GPRMC,085741.00,A,3820.12885,N,$GPRMC,085741.00,A,3820.12885,N,$GPRMC,085741.00,A,3820.12885,N,$GPRMC,085741.00,A,3820.12885,N,$GPRMC,085741.00,A,3820.12885,N,$GPRMC,085741.00,A,3820.12885,N,$GPRMC,085741.00,A,3820.12885,N,$GPRMC,085741.00,A,3820.12885,N,$GPRMC,085741.00,A,3820.12885,N,$GPRMC,085741.00,A,3820.12885,N,$GPRMC,085741.00,A,3820.12885,N,$GPRMC,085741.00,A,3820.12885,N,$GPRMC,085741.00,A,3820.12885,N,$GPRMC,085741.00,A,3820.12885,N,$GPRMC,085741.00,A,3820.12885,N,$GPRMC,085741.00,A,3820.12885,N,$GPRMC,085741.00,A,3820.12885,N,$GPRMC,085741.00,A,3820.12885,N,$GPRMC,085741.00,A,3820.12885,N,$GPRMC,085741.00,A,3820.12885,N,$GPRMC,085741.00,A,3820.12885,N,$GPRMC,085741.00,A,3820.12885,N,$GPRMC,085741.00,A,3820.12885,N,$GPRMC,085741.00,A,3820.12885,N,$GPRMC,085741.00,A,3820.12885,N,$GPRMC,085741.00,A,3820.12885,N,$GPRMC,085741.00,A,3820.12885,N,$GPRMC,085741.00,A,3820.12885,N,$GPRMC,085741.00,A,3820.12885,N,$GPRMC,085741.00,A,3820.12885,N,$GPRMC,085741.00,A,3820.12885,N,$GPRMC,085741.00,A,3820.12885,N,$GPRMC,085741.00,A,3820.12885,N,$GPRMC,085741.00,A,3820.12885,N,$GPRMC,085741.00,A,3820.12885,N,$GPRMC,085741.00,A,3820.12885,N,$GPRMC,085741.00,A,3820.12885,N,$GPRMC,085741.00,A,3820.12885,N,$GPRMC,085741.00,A,3820.12885,N,$GPRMC,085741.00,A,3820.12885,N,$GPRMC,085741.00,A,3820.12885,N,$GPRMC,085741.00,A,3820.12885,N,$GPRMC,085741.00,A,3820.12885,N,$GPRMC,085741.00,A,3820.12885,N,$GPRMC,085741.00,A,3820.12885,N,$GPRMC,085741.00,A,3820.12885,N,$GPRMC,085741.00,A,3820.12885,N,$GPRMC,085741.00,A,3820.12885,N,$GPRMC,085741.00,A,3820.12885,N,$GPRMC,085741.00,A,3820.12885,N,$GPRMC,085741.00,A,3820.12885,N,$GPRMC,085741.00,A,3820.12885,N,$GPRMC,085741.00,A,3820.12885,N,$GPRMC,085741.00,A,3820.12885,N,$GPRMC,085741.00,A,3820.12885,N,$GPRMC,085741.00,A,3820.12885,N,$GPRMC,085741.00,A,3820.12885,N,$GPRMC,085741.00,A,3820.12885,N,$GPRMC,085741.00,A,3820.12885,N,$GPRMC,085741.00,A,3820.12885,N,$GPRMC,085741.00,A,3820.12885,N,$GPRMC,085741.00,A,3820.12885,N,$GPRMC,085741.00,A,3820.12885,N,$GPRMC,085741.00,A,3820.12885,N,$GPRMC,085741.00,A,3820.12885,N,$GPRMC,085741.00,A,3820.12885,N,$GPRMC,085741.00,A,3820.12885,N,$GPRMC,085741.00,A,3820.12885,N,$GPRMC,085741.00,A,3820.12885,N,$GPRMC,085741.00,A,3820.12885,N,$GPRMC,085741.00,A,3820.12885,N,$GPRMC,085741.00,A,3820.12885,N,$GPRMC,085741.00,A,3820.12885,N,$GPRMC,085741.00,A,3820.12885,N,$GPRMC,085741.00,A,3820.12885,N,$GPRMC,085741.00,A,3820.12885,N,$GPRMC,085741.00,A,3820.12885,N,$GPRMC,085741.00,A,3820.12885,N,$GPRMC,085741.00,A,3820.12885,N,$GPRMC,085741.00,A,3820.12885,N,$GPRMC,085741.00,A,3820.12885,N,$GPRMC,085741.00,A,3820.12885,N,$GPRMC,085741.00,A,3820.12885,N,$GPRMC,085741.00,A,3820.12885,N,$GPRMC,085741.00,A,3820.12885,N,$GPRMC,085741.00,A,3820.12885,N,$GPRMC,085741.00,A,3820.12885,N,$GPRMC,085741.00,A,3820.12885,N,$GPRMC,085741.00,A,3820.12885,N,$GPRMC,085741.00,A,3820.12885,N,$GPRMC,085741.00,A,3820.12885,N,$GPRMC,085741.00,A,3820.12885,N,$GPRMC,085741.00,A,3820.12885,N,$GPRMC,085741.00,A,3820.12885,N,$GPRMC,085741.00,A,3820.12885,N,$GPRMC,085741.00,A,3820.12885,N,$GPRMC,085741.00,A,3820.12885,N,$GPRMC,085741.00,A,3820.12885,N,$GPRMC,085741.00,A,3820.12885,N,$GPRMC,085741.00,A,3820.12885,N,$GPRMC,085741.00,A,3820.12885,N,$GPRMC,085741.00,A,3820.12885,N,$GPRMC,085741.00,A,3820.12885,N,$GPRMC,085741.00,A,3820.12885,N,$GPRMC,085741.00,A,3820.12885,N,$GPRMC,085741.00,A,3820.12885,N,$GPRMC,085741.00,A,3820.12885,N,$GPRMC,085741.00,A,3820.12885,N,$GPRMC,085741.00,A,3820.12885,N,$GPRMC,085741.00,A,3820.12885,N,$GPRMC,085741.00,A,3820.12885,N,$GPRMC,085741.00,A,3820.12885,N,$GPRMC,085741.00,A,3820.12885,N,$GPRMC,085741.00,A,3820.12885,N,$GPRMC,085741.00,A,3820.12885,N,$GPRMC,085741.00,A,3820.12885,N,$GPRMC,085741.00,A,3820.12885,N,$GPRMC,085741.00,A,3820.12885,N,$GPRMC,085741.00,A,3820.12885,N,$GPRMC,085741.00,A,3820.12885,N,$GPRMC,085741.00,A,3820.12885,N,$GPRMC,085741.00,A,3820.12885,N,$GPRMC,085741.00,A,3820.12885,N,$GPRMC,085741.00,A,3820.12885,N,$GPRMC,085741.00,A,3820.12885,N,$GPRMC,085741.00,A,3820.12885,N,$GPRMC,085741.00,A,3820.12885,N,$GPRMC,085741.00,A,3820.12885,N,$GPRMC,085741.00,A,3820.12885,N,$GPRMC,085741.00,A,3820.12885,N,$GPRMC,085741.00,A,3820.12885,N,$GPRMC,085741.00,A,3820.12885,N,$GPRMC,085741.00,A,3820.12885,N,$GPRMC,085741.00,A,3820.12885,N,$GPRMC,085741.00,A,3820.12885,N,$GPRMC,085741.00,A,3820.12885,N,$GPRMC,085741.00,A,3820.12885,N,$GPRMC,085741.00,A,3820.12885,N,$GPRMC,085741.00,A,3820.12885,N,$GPRMC,085741.00,A,3820.12885,N,$GPRMC,085741.00,A,3820.12885,N,$GPRMC,085741.00,A,3820.12885,N,$GPRMC,085741.00,A,3820.12885,N,$GPRMC,085741.00,A,3820.12885,N,$GPRMC,085741.00,A,3820.12885,N,$GPRMC,085741.00,A,3820.12885,N,$GPRMC,085741.00,A,3820.12885,N,$GPRMC,085741.00,A,3820.12885,N,$GPRMC,085741.00,A,3820.12885,N,$GPRMC,085741.00,A,3820.12885,N,$GPRMC,085741.00,A,3820.12885,N,$GPRMC,085741.00,A,3820.12885,N,$GPRMC,085741.00,A,3820.12885,N,$GPRMC,085741.00,A,3820.12885,N,$GPRMC,085741.00,A,3820.12885,N,$GPRMC,085741.00,A,3820.12885,N,$GPRMC,085741.00,A,3820.12885,N,$GPRMC,085741.00,A,3820.12885,N,$GPRMC,085741.00,A,3820.12885,N,$GPRMC,085741.00,A,3820.12885,N,$GPRMC,085741.00,A,3820.12885,N,$GPRMC,085741.00,A,3820.12885,N,$GPRMC,085741.00,A,3820.12885,N,$GPRMC,085741.00,A,3820.12885,N,$GPRMC,085741.00,A,3820.12885,N,$GPRMC,085741.00,A,3820.12885,N,$GPRMC,085741.00,A,3820.12885,N,$GPRMC,085741.00,A,3820.12885,N,$GPRMC,085741.00,A,3820.12885,N,$GPRMC,085741.00,A,3820.12885,N,$GPRMC,085741.00,A,3820.12885,N,$GPRMC,085741.00,A,3820.12885,N,$GPRMC,085741.00,A,3820.12885,N,$GPRMC,085741.00,A,3820.12885,N,$GPRMC,085741.00,A,3820.12885,N,$GPRMC,085741.00,A,3820.12885,N,$GPRMC,085741.00,A,3820.12885,N,$GPRMC,085741.00,A,3820.12885,N,$GPRMC,085741.00,A,3820.12885,N,$GPRMC,085741.00,A,3820.12885,N,$GPRMC,085741.00,A,3820.12885,N,$GPRMC,085741.00,A,3820.12885,N,$GPRMC,085741.00,A,3820.12885,N,$GPRMC,085741.00,A,3820.12885,N,$GPRMC,085741.00,A,3820.12885,N,$GPRMC,085741.00,A,3820.12885,N,$GPRMC,085741.00,A,3820.12885,N,$GPRMC,085741.00,A,3820.12885,N,$GPRMC,085741.00,A,3820.12885,N,$GPRMC,085741.00,A,3820.12885,N,$GPRMC,085741.00,A,3820.12885,N,$GPRMC,085741.00,A,3820.12885,N,$GPRMC,085741.00,A,3820.12885,N,$GPRMC,085741.00,A,3820.12885,N,$GPRMC,085741.00,A,3820.12885,N,$GPRMC,085741.00,A,3820.12885,N,$GPRMC,085741.00,A,3820.12885,N,$GPRMC,085741.00,A,3820.12885,N,$GPRMC,085741.00,A,3820.12885,N,$GPRMC,085741.00,A,3820.12885,N,$GPRMC,085741.00,A,3820.12885,N,$GPRMC,085741.00,A,3820.12885,N,$GPRMC,085741.00,A,3820.12885,N,$GPRMC,085741.00,A,3820.12885,N,$GPRMC,085741.00,A,3820.12885,N,$GPRMC,085741.00,A,3820.12885,N,$GPRMC,085741.00,A,3820.12885,N,$GPRMC,085741.00,A,3820.12885,N,$GPRMC,085741.00,A,3820.12885,N,$GPRMC,085741.00,A,3820.12885,N,$GPRMC,085741.00,A,3820.12885,N,$GPRMC,085741.00,A,3820.12885,N,$GPRMC,085741.00,A,3820.12885,N,$GPRMC,085741.00,A,3820.12885,N,$GPRMC,085741.00,A,3820.12885,N,$GPRMC,085741.00,A,3820.12885,N,$GPRMC,085741.00,A,3820.12885,N,$GPRMC,085741.00,A,3820.12885,N,$GPRMC,085741.00,A,3820.12885,N,$GPRMC,085741.00,A,3820.12885,N,$GPRMC,085741.00,A,3820.12885,N,$GPRMC,085741.00,A,3820.12885,N,$GPRMC,085741.00,A,3820.12885,N,$GPRMC,085741.00,A,3820.12885,N,$GPRMC,085741.00,A,3820.12885,N,$GPRMC,085741.00,A,3820.12885,N,$GPRMC,085741.00,A,3820.12885,N,$GPRMC,085741.00,A,3820.12885,N,$GPRMC,085741.00,A,3820.12885,N,$GPRMC,085741.00,A,3820.12885,N,$GPRMC,085741.00,A,3820.12885,N,$GPRMC,085741.00,A,3820.12885,N,$GPRMC,085741.00,A,3820.12885,N,$GPRMC,085741.00,A,3820.12885,N,$GPRMC,085741.00,A,3820.12885,N,$GPRMC,085741.00,A,3820.12885,N,$GPRMC,085741.00,A,3820.12885,N,$GPRMC,085741.00,A,3820.12885,N,$GPRMC,085741.00,A,3820.12885,N,$GPRMC,085741.00,A,3820.12885,N,$GPRMC,085741.00,A,3820.12885,N,$GPRMC,085741.00,A,3820.12885,N,$GPRMC,085741.00,A,3820.12885,N,$GPRMC,085741.00,A,3820.12885,N,$GPRMC,085741.00,A,3820.12885,N,$GPRMC,085741.00,A,3820.12885,N,$GPRMC,085741.00,A,3820.12885,N,$GPRMC,085741.00,A,3820.12885,N,$GPRMC,085741.00,A,3820.12885,N,$GPRMC,085741.00,A,3820.12885,N,$GPRMC,085741.00,A,3820.12885,N,$GPRMC,085741.00,A,3820.12885,N,$GPRMC,085741.00,A,3820.12885,N,$GPRMC,085741.00,A,3820.12885,N,$GPRMC,085741.00,A,3820.12885,N,$GPRMC,085741.00,A,3820.12885,N,$GPRMC,085741.00,A,3820.12885,N,$GPRMC,085741.00,A,3820.12885,N,$GPRMC,085741.00,A,3820.12885,N,$GPRMC,085741.00,A,3820.12885,N,$GPRMC,085741.00,A,3820.12885,N,$GPRMC,085741.00,A,3820.12885,N,$GPRMC,085741.00,A,3820.12885,N,$GPRMC,085741.00,A,3820.12885,N,$GPRMC,085741.00,A,3820.12885,N,$GPRMC,085741.00,A,3820.12885,N,$GPRMC,085741.00,A,3820.12885,N,$GPRMC,085741.00,A,3820.12885,N,$GPRMC,085741.00,A,3820.12885,N,$GPRMC,085741.00,A,3820.12885,N,$GPRMC,085741.00,A,3820.12885,N,$GPRMC,085741.00,A,3820.12885,N,$GPRMC,085741.00,A,3820.12885,N,$GPRMC,085741.00,A,3820.12885,N,$GPRMC,085741.00,A,3820.12885,N,$GPRMC,085741.00,A,3820.12885,N,$GPRMC,085741.00,A,3820.12885,N,$GPRMC,085741.00,A,3820.12885,N,$GPRMC,085741.00,A,3820.12885,N,$GPRMC,085741.00,A,3820.12885,N,$GPRMC,085741.00,A,3820.12885,N,$GPRMC,085741.00,A,3820.12885,N,$GPRMC,085741.00,A,3820.12885,N,$GPRMC,085741.00,A,3820.12885,N,$GPRMC,085741.00,A,3820.12885,N,$GPRMC,085741.00,A,3820.12885,N,$GPRMC,085741.00,A,3820.12885,N,$GPRMC,085741.00,A,3820.12885,N,$GPRMC,085741.00,A,3820.12885,N,$GPRMC,085741.00,A,3820.12885,N,$GPRMC,085741.00,A,3820.12885,N,$GPRMC,085741.00,A,3820.12885,N,$GPRMC,085741.00,A,3820.12885,N,$GPRMC,085741.00,A,3820.12885,N,$GPRMC,085741.00,A,3820.12885,N,$GPRMC,085741.00,A,3820.12885,N,$GPRMC,085741.00,A,3820.12885,N,$GPRMC,085741.00,A,3820.12885,N,$GPRMC,085741.00,A,3820.12885,N,$GPRMC,085741.00,A,3820.12885,N,$GPRMC,085741.00,A,3820.12885,N,$GPRMC,085741.00,A,3820.12885,N,$GPRMC,085741.00,A,3820.12885,N,$GPRMC,085741.00,A,3820.12885,N,$GPRMC,085741.00,A,3820.12885,N,$GPRMC,085741.00,A,3820.12885,N,$GPRMC,085741.00,A,3820.12885,N,$GPRMC,085741.00,A,3820.12885,N,$GPRMC,085741.00,A,3820.12885,N,$GPRMC,085741.00,A,3820.12885,N,$GPRMC,085741.00,A,3820.12885,N,$GPRMC,085741.00,A,3820.12885,N,$GPRMC,085741.00,A,3820.12885,N,$GPRMC,085741.00,A,3820.12885,N,$GPRMC,085741.00,A,3820.12885,N,$GPRMC,085741.00,A,3820.12885,N,$GPRMC,085741.00,A,3820.12885,N,$GPRMC,085741.00,A,3820.12885,N,$GPRMC,085741.00,A,3820.12885,N,$GPRMC,085741.00,A,3820.12885,N,$GPRMC,085741.00,A,3820.12885,N,$GPRMC,085741.00,A,3820.12885,N,$GPRMC,085741.00,A,3820.12885,N,$GPRMC,085741.00,A,3820.12885,N,$GPRMC,085741.00,A,3820.12885,N,$GPRMC,085741.00,A,3820.12885,N,$GPRMC,085741.00,A,3820.12885,N,$GPRMC,085741.00,A,3820.12885,N,$GPRMC,085741.00,A,3820.12885,N,$GPRMC,085741.00,A,3820.12885,N,$GPRMC,085741.00,A,3820.12885,N,$GPRMC,085741.00,A,3820.12885,N,$GPRMC,085741.00,A,3820.12885,N,$GPRMC,085741.00,A,3820.12885,N,$GPRMC,085741.00,A,3820.12885,N,$GPRMC,085741.00,A,3820.12885,N,$GPRMC,085741.00,A,3820.12885,N,$GPRMC,085741.00,A,3820.12885,N,$GPRMC,085741.00,A,3820.12885,N,$GPRMC,085741.00,A,3820.12885,N,$GPRMC,085741.00,A,3820.12885,N,$GPRMC,085741.00,A,3820.12885,N,$GPRMC,085741.00,A,3820.12885,N,$GPRMC,085741.00,A,3820.12885,N,$GPRMC,085741.00,A,3820.12885,N,$GPRMC,085741.00,A,3820.12885,N,$GPRMC,085741.00,A,3820.12885,N,$GPRMC,085741.00,A,3820.12885,N,$GPRMC,085741.00,A,3820.12885,N,$GPRMC,085741.00,A,3820.12885,N,$GPRMC,085741.00,A,3820.12885,N,$GPRMC,085741.00,A,3820.12885,N,$GPRMC,085741.00,A,3820.12885,N,$GPRMC,085741.00,A,3820.12885,N,$GPRMC,085741.00,A,3820.12885,N,$GPRMC,085741.00,A,3820.12885,N,$GPRMC,085741.00,A,3820.12885,N,$GPRMC,085741.00,A,3820.12885,N,$GPRMC,085741.00,A,3820.12885,N,$GPRMC,085741.00,A,3820.12885,N,$GPRMC,085741.00,A,3820.12885,N,$GPRMC,085741.00,A,3820.12885,N,$GPRMC,085741.00,A,3820.12885,N,$GPRMC,085741.00,A,3820.12885,N,$GPRMC,085741.00,A,3820.12885,N,$GPRMC,085741.00,A,3820.12885,N,$GPRMC,085741.00,A,3820.12885,N,$GPRMC,085741.00,A,3820.12885,N,$GPRMC,085741.00,A,3820.12885,N,$GPRMC,085741.00,A,3820.12885,N,$GPRMC,085741.00,A,3820.12885,N,$GPRMC,085741.00,A,3820.12885,N,$GPRMC,085741.00,A,3820.12885,N,$GPRMC,085741.00,A,3820.12885,N,$GPRMC,085741.00,A,3820.12885,N,$GPRMC,085741.00,A,3820.12885,N,$GPRMC,085741.00,A,3820.12885,N,$GPRMC,085741.00,A,3820.12885,N,$GPRMC,085741.00,A,3820.12885,N,$GPRMC,085741.00,A,3820.12885,N,$GPRMC,085741.00,A,3820.12885,N,$GPRMC,085741.00,A,3820.12885,N,$GPRMC,085741.00,A,3820.12885,N,$GPRMC,085741.00,A,3820.12885,N,$GPRMC,085741.00,A,3820.12885,N,$GPRMC,085741.00,A,3820.12885,N,$GPRMC,085741.00,A,3820.12885,N,$GPRMC,085741.00,A,3820.12885,N,$GPRMC,085741.00,A,3820.12885,N,$GPRMC,085741.00,A,3820.12885,N,$GPRMC,085741.00,A,3820.12885,N,$GPRMC,085741.00,A,3820.12885,N,$GPRMC,085741.00,A,3820.12885,N,$GPRMC,085741.00,A,3820.12885,N,$GPRMC,085741.00,A,3820.12885,N,$GPRMC,085741.00,A,3820.12885,N,$GPRMC,085741.00,A,3820.12885,N,$GPRMC,085741.00,A,3820.12885,N,$GPRMC,085741.00,A,3820.12885,N,$GPRMC,085741.00,A,3820.12885,N,$GPRMC,085741.00,A,3820.12885,N,$GPRMC,085741.00,A,3820.12885,N,$GPRMC,085741.00,A,3820.12885,N,$GPRMC,085741.00,A,3820.12885,N,$GPRMC,085741.00,A,3820.12885,N,$GPRMC,085741.00,A,3820.12885,N,$GPRMC,085741.00,A,3820.12885,N,$GPRMC,085741.00,A,3820.12885,N,$GPRMC,085741.00,A,3820.12885,N,$GPRMC,085741.00,A,3820.12885,N,$GPRMC,085741.00,A,3820.12885,N,$GPRMC,085741.00,A,3820.12885,N,$GPRMC,085741.00,A,3820.12885,N,$GPRMC,085741.00,A,3820.12885,N,$GPRMC,085741.00,A,3820.12885,N,$GPRMC,085741.00,A,3820.12885,N,$GPRMC,085741.00,A,3820.12885,N,$GPRMC,085741.00,A,3820.12885,N,$GPRMC,085741.00,A,3820.12885,N,$GPRMC,085741.00,A,3820.12885,N,$GPRMC,085741.00,A,3820.12885,N,$GPRMC,085741.00,A,3820.12885,N,$GPRMC,085741.00,A,3820.12885,N,$GPRMC,085741.00,A,3820.12885,N,$GPRMC,085741.00,A,3820.12885,N,$GPRMC,085741.00,A,3820.12885,N,$GPRMC,085741.00,A,3820.12885,N,$GPRMC,085741.00,A,3820.12885,N,$GPRMC,085741.00,A,3820.12885,N,$GPRMC,085741.00,A,3820.12885,N,$GPRMC,085741.00,A,3820.12885,N,$GPRMC,085741.00,A,3820.12885,N,$GPRMC,085741.00,A,3820.12885,N,$GPRMC,085741.00,A,3820.12885,N,$GPRMC,085741.00,A,3820.12885,N,$GPRMC,085741.00,A,3820.12885,N,$GPRMC,085741.00,A,3820.12885,N,$GPRMC,085741.00,A,3820.12885,N,$GPRMC,085741.00,A,3820.12885,N,$GPRMC,085741.00,A,3820.12885,N,$GPRMC,085741.00,A,3820.12885,N,$GPRMC,085741.00,A,3820.12885,N,$GPRMC,085741.00,A,3820.12885,N,$GPRMC,085741.00,A,3820.12885,N,$GPRMC,085741.00,A,3820.12885,N,$GPRMC,085741.00,A,3820.12885,N,$GPRMC,085741.00,A,3820.12885,N,$GPRMC,085741.00,A,3820.12885,N,$GPRMC,085741.00,A,3820.12885,N,$GPRMC,085741.00,A,3820.12885,N,$GPRMC,085741.00,A,3820.12885,N,$GPRMC,085741.00,A,3820.12885,N,$GPRMC,085741.00,A,3820.12885,N,$GPRMC,085741.00,A,3820.12885,N,$GPRMC,085741.00,A,3820.12885,N,$GPRMC,085741.00,A,3820.12885,N,$GPRMC,085741.00,A,3820.12885,N,$GPRMC,085741.00,A,3820.12885,N,$GPRMC,085741.00,A,3820.12885,N,$GPRMC,085741.00,A,3820.12885,N,$GPRMC,085741.00,A,3820.12885,N,$GPRMC,085741.00,A,3820.12885,N,$GPRMC,085741.00,A,3820.12885,N,$GPRMC,085741.00,A,3820.12885,N,$GPRMC,085741.00,A,3820.12885,N,$GPRMC,085741.00,A,3820.12885,N,$GPRMC,085741.00,A,3820.12885,N,$GPRMC,085741.00,A,3820.12885,N,$GPRMC,085741.00,A,3820.12885,N,$GPRMC,085741.00,A,3820.12885,N,$GPRMC,085741.00,A,3820.12885,N,$GPRMC,085741.00,A,3820.12885,N,$GPRMC,085741.00,A,3820.12885,N,$GPRMC,085741.00,A,3820.12885,N,$GPRMC,085741.00,A,3820.12885,N,$GPRMC,085741.00,A,3820.12885,N,$GPRMC,085741.00,A,3820.12885,N,$GPRMC,085741.00,A,3820.12885,N,$GPRMC,085741.00,A,3820.12885,N,$GPRMC,085741.00,A,3820.12885,N,$GPRMC,085741.00,A,3820.12885,N,$GPRMC,085741.00,A,3820.12885,N,$GPRMC,085741.00,A,3820.12885,N,$GPRMC,085741.00,A,3820.12885,N,$GPRMC,085741.00,A,3820.12885,N,$GPRMC,085741.00,A,3820.12885,N,$GPRMC,085741.00,A,3820.12885,N,$GPRMC,085741.00,A,3820.12885,N,$GPRMC,085741.00,A,3820.12885,N,$GPRMC,085741.00,A,3820.12885,N,$GPRMC,085741.00,A,3820.12885,N,$GPRMC,085741.00,A,3820.12885,N,$GPRMC,085741.00,A,3820.12885,N,$GPRMC,085741.00,A,3820.12885,N,$GPRMC,085741.00,A,3820.12885,N,$GPRMC,085741.00,A,3820.12885,N,$GPRMC,085741.00,A,3820.12885,N,$GPRMC,085741.00,A,3820.12885,N,$GPRMC,085741.00,A,3820.12885,N,$GPRMC,085741.00,A,3820.12885,N,$GPRMC,085741.00,A,3820.12885,N,$GPRMC,085741.00,A,3820.12885,N,$GPRMC,085741.00,A,3820.12885,N,$GPRMC,085741.00,A,3820.12885,N,$GPRMC,085741.00,A,3820.12885,N,$GPRMC,085741.00,A,3820.12885,N,$GPRMC,085741.00,A,3820.12885,N,$GPRMC,085741.00,A,3820.12885,N,$GPRMC,085741.00,A,3820.12885,N,$GPRMC,085741.00,A,3820.12885,N,$GPRMC,085741.00,A,3820.12885,N,$GPRMC,085741.00,A,3820.12885,N,$GPRMC,085741.00,A,3820.12885,N,$GPRMC,085741.00,A,3820.12885,N,$GPRMC,085741.00,A,3820.12885,N,$GPRMC,085741.00,A,3820.12885,N,$GPRMC,085741.00,A,3820.12885,N,$GPRMC,085741.00,A,3820.12885,N,$GPRMC,085741.00,A,3820.12885,N,$GPRMC,085741.00,A,3820.12885,N,$GPRMC,085741.00,A,3820.12885,N,$GPRMC,085741.00,A,3820.12885,N,$GPRMC,085741.00,A,3820.12885,N,$GPRMC,085741.00,A,3820.12885,N,$GPRMC,085741.00,A,3820.12885,N,$GPRMC,085741.00,A,3820.12885,N,$GPRMC,085741.00,A,3820.12885,N,$GPRMC,085741.00,A,3820.12885,N,$GPRMC,085741.00,A,3820.12885,N,$GPRMC,085741.00,A,3820.12885,N,$GPRMC,085741.00,A,3820.12885,N,$GPRMC,085741.00,A,3820.12885,N,$GPRMC,085741.00,A,3820.12885,N,$GPRMC,085741.00,A,3820.12885,N,$GPRMC,085741.00,A,3820.12885,N,$GPRMC,085741.00,A,3820.12885,N,$GPRMC,085741.00,A,3820.12885,N,$GPRMC,085741.00,A,3820.12885,N,$GPRMC,085741.00,A,3820.12885,N,$GPRMC,085741.00,A,3820.12885,N,$GPRMC,085741.00,A,3820.12885,N,$GPRMC,085741.00,A,3820.12885,N,$GPRMC,085741.00,A,3820.12885,N,$GPRMC,085741.00,A,3820.12885,N,$GPRMC,085741.00,A,3820.12885,N,$GPRMC,085741.00,A,3820.12885,N,$GPRMC,085741.00,A,3820.12885,N,$GPRMC,085741.00,A,3820.12885,N,$GPRMC,085741.00,A,3820.12885,N,$GPRMC,085741.00,A,3820.12885,N,$GPRMC,085741.00,A,3820.12885,N,$GPRMC,085741.00,A,3820.12885,N,$GPRMC,085741.00,A,3820.12885,N,$GPRMC,085741.00,A,3820.12885,N,$GPRMC,085741.00,A,3820.12885,N,$GPRMC,085741.00,A,3820.12885,N,$GPRMC,085741.00,A,3820.12885,N,$GPRMC,085741.00,A,3820.12885,N,$GPRMC,085741.00,A,3820.12885,N,$GPRMC,085741.00,A,3820.12885,N,$GPRMC,085741.00,A,3820.12885,N,$GPRMC,085741.00,A,3820.12885,N,$GPRMC,085741.00,A,3820.12885,N,$GPRMC,085741.00,A,3820.12885,N,$GPRMC,085741.00,A,3820.12885,N,$GPRMC,085741.00,A,3820.12885,N,$GPRMC,085741.00,A,3820.12885,N,$GPRMC,085741.00,A,3820.12885,N,$GPRMC,085741.00,A,3820.12885,N,$GPRMC,085741.00,A,3820.12885,N,$GPRMC,085741.00,A,3820.12885,N,$GPRMC,085741.00,A,3820.12885,N,$GPRMC,085741.00,A,3820.12885,N,$GPRMC,085741.00,A,3820.12885,N,$GPRMC,085741.00,A,3820.12885,N,$GPRMC,085741.00,A,3820.12885,N,$GPRMC,085741.00,A,3820.12885,N,$GPRMC,085741.00,A,3820.12885,N,$GPRMC,085741.00,A,3820.12885,N,$GPRMC,085741.00,A,3820.12885,N,$GPRMC,085741.00,A,3820.12885,N,$GPRMC,085741.00,A,3820.12885,N,$GPRMC,085741.00,A,3820.12885,N,$GPRMC,085741.00,A,3820.12885,N,$GPRMC,085741.00,A,3820.12885,N,$GPRMC,085741.00,A,3820.12885,N,$GPRMC,085741.00,A,3820.12885,N,$GPRMC,085741.00,A,3820.12885,N,$GPRMC,085741.00,A,3820.12885,N,$GPRMC,085741.00,A,3820.12885,N,$GPRMC,085741.00,A,3820.12885,N,$GPRMC,085741.00,A,3820.12885,N,$GPRMC,085741.00,A,3820.12885,N,$GPRMC,085741.00,A,3820.12885,N,$GPRMC,085741.00,A,3820.12885,N,$GPRMC,085741.00,A,3820.12885,N,$GPRMC,085741.00,A,3820.12885,N,$GPRMC,085741.00,A,3820.12885,N,$GPRMC,085741.00,A,3820.12885,N,$GPRMC,085741.00,A,3820.12885,N,$GPRMC,085741.00,A,3820.12885,N,$GPRMC,085741.00,A,3820.12885,N,$GPRMC,085741.00,A,3820.12885,N,$GPRMC,085741.00,A,3820.12885,N,$GPRMC,085741.00,A,3820.12885,N,$GPRMC,085741.00,A,3820.12885,N,$GPRMC,085741.00,A,3820.12885,N,$GPRMC,085741.00,A,3820.12885,N,$GPRMC,085741.00,A,3820.12885,N,$GPRMC,085741.00,A,3820.12885,N,$GPRMC,085741.00,A,3820.12885,N,$GPRMC,085741.00,A,3820.12885,N,$GPRMC,085741.00,A,3820.12885,N,$GPRMC,085741.00,A,3820.12885,N,$GPRMC,085741.00,A,3820.12885,N,$GPRMC,085741.00,A,3820.12885,N,$GPRMC,085741.00,A,3820.12885,N,$GPRMC,085741.00,A,3820.12885,N,$GPRMC,085741.00,A,3820.12885,N,$GPRMC,085741.00,A,3820.12885,N,$GPRMC,085741.00,A,3820.12885,N,$GPRMC,085741.00,A,3820.12885,N,$GPRMC,085741.00,A,3820.12885,N,$GPRMC,085741.00,A,3820.12885,N,$GPRMC,085741.00,A,3820.12885,N,$GPRMC,085741.00,A,3820.12885,N,$GPRMC,085741.00,A,3820.12885,N,$GPRMC,085741.00,A,3820.12885,N,$GPRMC,085741.00,A,3820.12885,N,$GPRMC,085741.00,A,3820.12885,N,$GPRMC,085741.00,A,3820.12885,N,$GPRMC,085741.00,A,3820.12885,N,$GPRMC,085741.00,A,3820.12885,N,$GPRMC,085741.00,A,3820.12885,N,$GPRMC,085741.00,A,3820.12885,N,$GPRMC,085741.00,A,3820.12885,N,$GPRMC,085741.00,A,3820.12885,N,$GPRMC,085741.00,A,3820.12885,N,$GPRMC,085741.00,A,3820.12885,N,$GPRMC,085741.00,A,3820.12885,N,$GPRMC,085741.00,A,3820.12885,N,$GPRMC,085741.00,A,3820.12885,N,$GPRMC,085741.00,A,3820.12885,N,$GPRMC,085741.00,A,3820.12885,N,$GPRMC,085741.00,A,3820.12885,N,$GPRMC,085741.00,A,3820.12885,N,$GPRMC,085741.00,A,3820.12885,N,$GPRMC,085741.00,A,3820.12885,N,$GPRMC,085741.00,A,3820.12885,N,$GPRMC,085741.00,A,3820.12885,N,$GPRMC,085741.00,A,3820.12885,N,$GPRMC,085741.00,A,3820.12885,N,$GPRMC,085741.00,A,3820.12885,N,$GPRMC,085741.00,A,3820.12885,N,$GPRMC,085741.00,A,3820.12885,N,$GPRMC,085741.00,A,3820.12885,N,$GPRMC,085741.00,A,3820.12885,N,$GPRMC,085741.00,A,3820.12885,N,$GPRMC,085741.00,A,3820.12885,N,$GPRMC,085741.00,A,3820.12885,N,$GPRMC,085741.00,A,3820.12885,N,$GPRMC,085741.00,A,3820.12885,N,$GPRMC,085741.00,A,3820.12885,N,$GPRMC,085741.00,A,3820.12885,N,$GPRMC,085741.00,A,3820.12885,N,$GPRMC,085741.00,A,3820.12885,N,$GPRMC,085741.00,A,3820.12885,N,$GPRMC,085741.00,A,3820.12885,N,$GPRMC,085741.00,A,3820.12885,N,$GPRMC,085741.00,A,3820.12885,N,$GPRMC,085741.00,A,3820.12885,N,$GPRMC,085741.00,A,3820.12885,N,$GPRMC,085741.00,A,3820.12885,N,$GPRMC,085741.00,A,3820.12885,N,$GPRMC,085741.00,A,3820.12885,N,$GPRMC,085741.00,A,3820.12885,N,$GPRMC,085741.00,A,3820.12885,N,$GPRMC,085741.00,A,3820.12885,N,$GPRMC,085741.00,A,3820.12885,N,$GPRMC,085741.00,A,3820.12885,N,$GPRMC,085741.00,A,3820.12885,N,$GPRMC,085741.00,A,3820.12885,N,$GPRMC,085741.00,A,3820.12885,N,$GPRMC,085741.00,A,3820.12885,N,$GPRMC,085741.00,A,3820.12885,N,$GPRMC,085741.00,A,3820.12885,N,$GPRMC,085741.00,A,3820.12885,N,$GPRMC,085741.00,A,3820.12885,N,$GPRMC,085741.00,A,3820.12885,N,$GPRMC,085741.00,A,3820.12885,N,$GPRMC,085741.00,A,3820.12885,N,$GPRMC,085741.00,A,3820.12885,N,02638.64367,E,0.071,,070524,,,A*02638.64367,E,0.071,,070524,,,A*02638.64367,E,0.071,,070524,,,A*02638.64367,E,0.071,,070524,,,A*02638.64367,E,0.071,,070524,,,A*02638.64367,E,0.071,,070524,,,A*02638.64367,E,0.071,,070524,,,A*02638.64367,E,0.071,,070524,,,A*02638.64367,E,0.071,,070524,,,A*02638.64367,E,0.071,,070524,,,A*02638.64367,E,0.071,,070524,,,A*02638.64367,E,0.071,,070524,,,A*02638.64367,E,0.071,,070524,,,A*02638.64367,E,0.071,,070524,,,A*02638.64367,E,0.071,,070524,,,A*02638.64367,E,0.071,,070524,,,A*02638.64367,E,0.071,,070524,,,A*02638.64367,E,0.071,,070524,,,A*02638.64367,E,0.071,,070524,,,A*02638.64367,E,0.071,,070524,,,A*02638.64367,E,0.071,,070524,,,A*02638.64367,E,0.071,,070524,,,A*02638.64367,E,0.071,,070524,,,A*02638.64367,E,0.071,,070524,,,A*02638.64367,E,0.071,,070524,,,A*02638.64367,E,0.071,,070524,,,A*02638.64367,E,0.071,,070524,,,A*02638.64367,E,0.071,,070524,,,A*02638.64367,E,0.071,,070524,,,A*02638.64367,E,0.071,,070524,,,A*02638.64367,E,0.071,,070524,,,A*02638.64367,E,0.071,,070524,,,A*02638.64367,E,0.071,,070524,,,A*02638.64367,E,0.071,,070524,,,A*02638.64367,E,0.071,,070524,,,A*02638.64367,E,0.071,,070524,,,A*02638.64367,E,0.071,,070524,,,A*02638.64367,E,0.071,,070524,,,A*02638.64367,E,0.071,,070524,,,A*02638.64367,E,0.071,,070524,,,A*02638.64367,E,0.071,,070524,,,A*02638.64367,E,0.071,,070524,,,A*02638.64367,E,0.071,,070524,,,A*02638.64367,E,0.071,,070524,,,A*02638.64367,E,0.071,,070524,,,A*02638.64367,E,0.071,,070524,,,A*02638.64367,E,0.071,,070524,,,A*02638.64367,E,0.071,,070524,,,A*02638.64367,E,0.071,,070524,,,A*02638.64367,E,0.071,,070524,,,A*02638.64367,E,0.071,,070524,,,A*02638.64367,E,0.071,,070524,,,A*02638.64367,E,0.071,,070524,,,A*02638.64367,E,0.071,,070524,,,A*02638.64367,E,0.071,,070524,,,A*02638.64367,E,0.071,,070524,,,A*02638.64367,E,0.071,,070524,,,A*02638.64367,E,0.071,,070524,,,A*02638.64367,E,0.071,,070524,,,A*02638.64367,E,0.071,,070524,,,A*02638.64367,E,0.071,,070524,,,A*02638.64367,E,0.071,,070524,,,A*02638.64367,E,0.071,,070524,,,A*02638.64367,E,0.071,,070524,,,A*02638.64367,E,0.071,,070524,,,A*02638.64367,E,0.071,,070524,,,A*02638.64367,E,0.071,,070524,,,A*02638.64367,E,0.071,,070524,,,A*02638.64367,E,0.071,,070524,,,A*02638.64367,E,0.071,,070524,,,A*02638.64367,E,0.071,,070524,,,A*02638.64367,E,0.071,,070524,,,A*02638.64367,E,0.071,,070524,,,A*02638.64367,E,0.071,,070524,,,A*02638.64367,E,0.071,,070524,,,A*02638.64367,E,0.071,,070524,,,A*02638.64367,E,0.071,,070524,,,A*02638.64367,E,0.071,,070524,,,A*02638.64367,E,0.071,,070524,,,A*02638.64367,E,0.071,,070524,,,A*02638.64367,E,0.071,,070524,,,A*02638.64367,E,0.071,,070524,,,A*02638.64367,E,0.071,,070524,,,A*02638.64367,E,0.071,,070524,,,A*02638.64367,E,0.071,,070524,,,A*02638.64367,E,0.071,,070524,,,A*02638.64367,E,0.071,,070524,,,A*02638.64367,E,0.071,,070524,,,A*02638.64367,E,0.071,,070524,,,A*02638.64367,E,0.071,,070524,,,A*02638.64367,E,0.071,,070524,,,A*02638.64367,E,0.071,,070524,,,A*02638.64367,E,0.071,,070524,,,A*02638.64367,E,0.071,,070524,,,A*02638.64367,E,0.071,,070524,,,A*02638.64367,E,0.071,,070524,,,A*02638.64367,E,0.071,,070524,,,A*02638.64367,E,0.071,,070524,,,A*02638.64367,E,0.071,,070524,,,A*02638.64367,E,0.071,,070524,,,A*02638.64367,E,0.071,,070524,,,A*02638.64367,E,0.071,,070524,,,A*02638.64367,E,0.071,,070524,,,A*02638.64367,E,0.071,,070524,,,A*02638.64367,E,0.071,,070524,,,A*02638.64367,E,0.071,,070524,,,A*02638.64367,E,0.071,,070524,,,A*02638.64367,E,0.071,,070524,,,A*02638.64367,E,0.071,,070524,,,A*02638.64367,E,0.071,,070524,,,A*02638.64367,E,0.071,,070524,,,A*02638.64367,E,0.071,,070524,,,A*02638.64367,E,0.071,,070524,,,A*02638.64367,E,0.071,,070524,,,A*02638.64367,E,0.071,,070524,,,A*02638.64367,E,0.071,,070524,,,A*02638.64367,E,0.071,,070524,,,A*02638.64367,E,0.071,,070524,,,A*02638.64367,E,0.071,,070524,,,A*02638.64367,E,0.071,,070524,,,A*02638.64367,E,0.071,,070524,,,A*02638.64367,E,0.071,,070524,,,A*02638.64367,E,0.071,,070524,,,A*02638.64367,E,0.071,,070524,,,A*02638.64367,E,0.071,,070524,,,A*02638.64367,E,0.071,,070524,,,A*02638.64367,E,0.071,,070524,,,A*02638.64367,E,0.071,,070524,,,A*02638.64367,E,0.071,,070524,,,A*02638.64367,E,0.071,,070524,,,A*02638.64367,E,0.071,,070524,,,A*02638.64367,E,0.071,,070524,,,A*02638.64367,E,0.071,,070524,,,A*02638.64367,E,0.071,,070524,,,A*02638.64367,E,0.071,,070524,,,A*02638.64367,E,0.071,,070524,,,A*02638.64367,E,0.071,,070524,,,A*02638.64367,E,0.071,,070524,,,A*02638.64367,E,0.071,,070524,,,A*02638.64367,E,0.071,,070524,,,A*02638.64367,E,0.071,,070524,,,A*02638.64367,E,0.071,,070524,,,A*02638.64367,E,0.071,,070524,,,A*02638.64367,E,0.071,,070524,,,A*02638.64367,E,0.071,,070524,,,A*02638.64367,E,0.071,,070524,,,A*02638.64367,E,0.071,,070524,,,A*02638.64367,E,0.071,,070524,,,A*02638.64367,E,0.071,,070524,,,A*02638.64367,E,0.071,,070524,,,A*02638.64367,E,0.071,,070524,,,A*02638.64367,E,0.071,,070524,,,A*02638.64367,E,0.071,,070524,,,A*02638.64367,E,0.071,,070524,,,A*02638.64367,E,0.071,,070524,,,A*02638.64367,E,0.071,,070524,,,A*02638.64367,E,0.071,,070524,,,A*02638.64367,E,0.071,,070524,,,A*02638.64367,E,0.071,,070524,,,A*02638.64367,E,0.071,,070524,,,A*02638.64367,E,0.071,,070524,,,A*02638.64367,E,0.071,,070524,,,A*02638.64367,E,0.071,,070524,,,A*02638.64367,E,0.071,,070524,,,A*02638.64367,E,0.071,,070524,,,A*02638.64367,E,0.071,,070524,,,A*02638.64367,E,0.071,,070524,,,A*02638.64367,E,0.071,,070524,,,A*02638.64367,E,0.071,,070524,,,A*02638.64367,E,0.071,,070524,,,A*02638.64367,E,0.071,,070524,,,A*02638.64367,E,0.071,,070524,,,A*02638.64367,E,0.071,,070524,,,A*02638.64367,E,0.071,,070524,,,A*02638.64367,E,0.071,,070524,,,A*02638.64367,E,0.071,,070524,,,A*02638.64367,E,0.071,,070524,,,A*02638.64367,E,0.071,,070524,,,A*02638.64367,E,0.071,,070524,,,A*02638.64367,E,0.071,,070524,,,A*02638.64367,E,0.071,,070524,,,A*02638.64367,E,0.071,,070524,,,A*02638.64367,E,0.071,,070524,,,A*02638.64367,E,0.071,,070524,,,A*02638.64367,E,0.071,,070524,,,A*02638.64367,E,0.071,,070524,,,A*02638.64367,E,0.071,,070524,,,A*02638.64367,E,0.071,,070524,,,A*02638.64367,E,0.071,,070524,,,A*02638.64367,E,0.071,,070524,,,A*02638.64367,E,0.071,,070524,,,A*02638.64367,E,0.071,,070524,,,A*02638.64367,E,0.071,,070524,,,A*02638.64367,E,0.071,,070524,,,A*02638.64367,E,0.071,,070524,,,A*02638.64367,E,0.071,,070524,,,A*02638.64367,E,0.071,,070524,,,A*02638.64367,E,0.071,,070524,,,A*02638.64367,E,0.071,,070524,,,A*02638.64367,E,0.071,,070524,,,A*02638.64367,E,0.071,,070524,,,A*02638.64367,E,0.071,,070524,,,A*02638.64367,E,0.071,,070524,,,A*02638.64367,E,0.071,,070524,,,A*02638.64367,E,0.071,,070524,,,A*02638.64367,E,0.071,,070524,,,A*02638.64367,E,0.071,,070524,,,A*02638.64367,E,0.071,,070524,,,A*02638.64367,E,0.071,,070524,,,A*02638.64367,E,0.071,,070524,,,A*02638.64367,E,0.071,,070524,,,A*02638.64367,E,0.071,,070524,,,A*02638.64367,E,0.071,,070524,,,A*02638.64367,E,0.071,,070524,,,A*02638.64367,E,0.071,,070524,,,A*02638.64367,E,0.071,,070524,,,A*02638.64367,E,0.071,,070524,,,A*02638.64367,E,0.071,,070524,,,A*02638.64367,E,0.071,,070524,,,A*02638.64367,E,0.071,,070524,,,A*02638.64367,E,0.071,,070524,,,A*02638.64367,E,0.071,,070524,,,A*02638.64367,E,0.071,,070524,,,A*02638.64367,E,0.071,,070524,,,A*02638.64367,E,0.071,,070524,,,A*02638.64367,E,0.071,,070524,,,A*02638.64367,E,0.071,,070524,,,A*02638.64367,E,0.071,,070524,,,A*02638.64367,E,0.071,,070524,,,A*02638.64367,E,0.071,,070524,,,A*02638.64367,E,0.071,,070524,,,A*02638.64367,E,0.071,,070524,,,A*02638.64367,E,0.071,,070524,,,A*02638.64367,E,0.071,,070524,,,A*02638.64367,E,0.071,,070524,,,A*02638.64367,E,0.071,,070524,,,A*02638.64367,E,0.071,,070524,,,A*02638.64367,E,0.071,,070524,,,A*02638.64367,E,0.071,,070524,,,A*02638.64367,E,0.071,,070524,,,A*02638.64367,E,0.071,,070524,,,A*02638.64367,E,0.071,,070524,,,A*02638.64367,E,0.071,,070524,,,A*02638.64367,E,0.071,,070524,,,A*02638.64367,E,0.071,,070524,,,A*02638.64367,E,0.071,,070524,,,A*02638.64367,E,0.071,,070524,,,A*02638.64367,E,0.071,,070524,,,A*02638.64367,E,0.071,,070524,,,A*02638.64367,E,0.071,,070524,,,A*02638.64367,E,0.071,,070524,,,A*02638.64367,E,0.071,,070524,,,A*02638.64367,E,0.071,,070524,,,A*02638.64367,E,0.071,,070524,,,A*02638.64367,E,0.071,,070524,,,A*02638.64367,E,0.071,,070524,,,A*02638.64367,E,0.071,,070524,,,A*02638.64367,E,0.071,,070524,,,A*02638.64367,E,0.071,,070524,,,A*02638.64367,E,0.071,,070524,,,A*02638.64367,E,0.071,,070524,,,A*02638.64367,E,0.071,,070524,,,A*02638.64367,E,0.071,,070524,,,A*02638.64367,E,0.071,,070524,,,A*02638.64367,E,0.071,,070524,,,A*02638.64367,E,0.071,,070524,,,A*02638.64367,E,0.071,,070524,,,A*02638.64367,E,0.071,,070524,,,A*02638.64367,E,0.071,,070524,,,A*02638.64367,E,0.071,,070524,,,A*02638.64367,E,0.071,,070524,,,A*02638.64367,E,0.071,,070524,,,A*02638.64367,E,0.071,,070524,,,A*02638.64367,E,0.071,,070524,,,A*02638.64367,E,0.071,,070524,,,A*02638.64367,E,0.071,,070524,,,A*02638.64367,E,0.071,,070524,,,A*02638.64367,E,0.071,,070524,,,A*02638.64367,E,0.071,,070524,,,A*02638.64367,E,0.071,,070524,,,A*02638.64367,E,0.071,,070524,,,A*02638.64367,E,0.071,,070524,,,A*02638.64367,E,0.071,,070524,,,A*02638.64367,E,0.071,,070524,,,A*02638.64367,E,0.071,,070524,,,A*02638.64367,E,0.071,,070524,,,A*02638.64367,E,0.071,,070524,,,A*02638.64367,E,0.071,,070524,,,A*02638.64367,E,0.071,,070524,,,A*02638.64367,E,0.071,,070524,,,A*02638.64367,E,0.071,,070524,,,A*02638.64367,E,0.071,,070524,,,A*02638.64367,E,0.071,,070524,,,A*02638.64367,E,0.071,,070524,,,A*02638.64367,E,0.071,,070524,,,A*02638.64367,E,0.071,,070524,,,A*02638.64367,E,0.071,,070524,,,A*02638.64367,E,0.071,,070524,,,A*02638.64367,E,0.071,,070524,,,A*02638.64367,E,0.071,,070524,,,A*02638.64367,E,0.071,,070524,,,A*02638.64367,E,0.071,,070524,,,A*02638.64367,E,0.071,,070524,,,A*02638.64367,E,0.071,,070524,,,A*02638.64367,E,0.071,,070524,,,A*02638.64367,E,0.071,,070524,,,A*02638.64367,E,0.071,,070524,,,A*02638.64367,E,0.071,,070524,,,A*02638.64367,E,0.071,,070524,,,A*02638.64367,E,0.071,,070524,,,A*02638.64367,E,0.071,,070524,,,A*02638.64367,E,0.071,,070524,,,A*02638.64367,E,0.071,,070524,,,A*02638.64367,E,0.071,,070524,,,A*02638.64367,E,0.071,,070524,,,A*02638.64367,E,0.071,,070524,,,A*02638.64367,E,0.071,,070524,,,A*02638.64367,E,0.071,,070524,,,A*02638.64367,E,0.071,,070524,,,A*02638.64367,E,0.071,,070524,,,A*02638.64367,E,0.071,,070524,,,A*02638.64367,E,0.071,,070524,,,A*02638.64367,E,0.071,,070524,,,A*02638.64367,E,0.071,,070524,,,A*02638.64367,E,0.071,,070524,,,A*02638.64367,E,0.071,,070524,,,A*02638.64367,E,0.071,,070524,,,A*02638.64367,E,0.071,,070524,,,A*02638.64367,E,0.071,,070524,,,A*02638.64367,E,0.071,,070524,,,A*02638.64367,E,0.071,,070524,,,A*02638.64367,E,0.071,,070524,,,A*02638.64367,E,0.071,,070524,,,A*02638.64367,E,0.071,,070524,,,A*02638.64367,E,0.071,,070524,,,A*02638.64367,E,0.071,,070524,,,A*02638.64367,E,0.071,,070524,,,A*02638.64367,E,0.071,,070524,,,A*02638.64367,E,0.071,,070524,,,A*02638.64367,E,0.071,,070524,,,A*02638.64367,E,0.071,,070524,,,A*02638.64367,E,0.071,,070524,,,A*02638.64367,E,0.071,,070524,,,A*02638.64367,E,0.071,,070524,,,A*02638.64367,E,0.071,,070524,,,A*02638.64367,E,0.071,,070524,,,A*02638.64367,E,0.071,,070524,,,A*02638.64367,E,0.071,,070524,,,A*02638.64367,E,0.071,,070524,,,A*02638.64367,E,0.071,,070524,,,A*02638.64367,E,0.071,,070524,,,A*02638.64367,E,0.071,,070524,,,A*02638.64367,E,0.071,,070524,,,A*02638.64367,E,0.071,,070524,,,A*02638.64367,E,0.071,,070524,,,A*02638.64367,E,0.071,,070524,,,A*02638.64367,E,0.071,,070524,,,A*02638.64367,E,0.071,,070524,,,A*02638.64367,E,0.071,,070524,,,A*02638.64367,E,0.071,,070524,,,A*02638.64367,E,0.071,,070524,,,A*02638.64367,E,0.071,,070524,,,A*02638.64367,E,0.071,,070524,,,A*02638.64367,E,0.071,,070524,,,A*02638.64367,E,0.071,,070524,,,A*02638.64367,E,0.071,,070524,,,A*02638.64367,E,0.071,,070524,,,A*02638.64367,E,0.071,,070524,,,A*02638.64367,E,0.071,,070524,,,A*02638.64367,E,0.071,,070524,,,A*02638.64367,E,0.071,,070524,,,A*02638.64367,E,0.071,,070524,,,A*02638.64367,E,0.071,,070524,,,A*02638.64367,E,0.071,,070524,,,A*02638.64367,E,0.071,,070524,,,A*02638.64367,E,0.071,,070524,,,A*02638.64367,E,0.071,,070524,,,A*02638.64367,E,0.071,,070524,,,A*02638.64367,E,0.071,,070524,,,A*02638.64367,E,0.071,,070524,,,A*02638.64367,E,0.071,,070524,,,A*02638.64367,E,0.071,,070524,,,A*02638.64367,E,0.071,,070524,,,A*02638.64367,E,0.071,,070524,,,A*02638.64367,E,0.071,,070524,,,A*02638.64367,E,0.071,,070524,,,A*02638.64367,E,0.071,,070524,,,A*02638.64367,E,0.071,,070524,,,A*02638.64367,E,0.071,,070524,,,A*02638.64367,E,0.071,,070524,,,A*02638.64367,E,0.071,,070524,,,A*02638.64367,E,0.071,,070524,,,A*02638.64367,E,0.071,,070524,,,A*02638.64367,E,0.071,,070524,,,A*02638.64367,E,0.071,,070524,,,A*02638.64367,E,0.071,,070524,,,A*02638.64367,E,0.071,,070524,,,A*02638.64367,E,0.071,,070524,,,A*02638.64367,E,0.071,,070524,,,A*02638.64367,E,0.071,,070524,,,A*02638.64367,E,0.071,,070524,,,A*02638.64367,E,0.071,,070524,,,A*02638.64367,E,0.071,,070524,,,A*02638.64367,E,0.071,,070524,,,A*02638.64367,E,0.071,,070524,,,A*02638.64367,E,0.071,,070524,,,A*02638.64367,E,0.071,,070524,,,A*02638.64367,E,0.071,,070524,,,A*02638.64367,E,0.071,,070524,,,A*02638.64367,E,0.071,,070524,,,A*02638.64367,E,0.071,,070524,,,A*02638.64367,E,0.071,,070524,,,A*02638.64367,E,0.071,,070524,,,A*02638.64367,E,0.071,,070524,,,A*02638.64367,E,0.071,,070524,,,A*02638.64367,E,0.071,,070524,,,A*02638.64367,E,0.071,,070524,,,A*02638.64367,E,0.071,,070524,,,A*02638.64367,E,0.071,,070524,,,A*02638.64367,E,0.071,,070524,,,A*02638.64367,E,0.071,,070524,,,A*02638.64367,E,0.071,,070524,,,A*02638.64367,E,0.071,,070524,,,A*02638.64367,E,0.071,,070524,,,A*02638.64367,E,0.071,,070524,,,A*02638.64367,E,0.071,,070524,,,A*02638.64367,E,0.071,,070524,,,A*02638.64367,E,0.071,,070524,,,A*02638.64367,E,0.071,,070524,,,A*02638.64367,E,0.071,,070524,,,A*02638.64367,E,0.071,,070524,,,A*02638.64367,E,0.071,,070524,,,A*02638.64367,E,0.071,,070524,,,A*02638.64367,E,0.071,,070524,,,A*02638.64367,E,0.071,,070524,,,A*02638.64367,E,0.071,,070524,,,A*02638.64367,E,0.071,,070524,,,A*02638.64367,E,0.071,,070524,,,A*02638.64367,E,0.071,,070524,,,A*02638.64367,E,0.071,,070524,,,A*02638.64367,E,0.071,,070524,,,A*02638.64367,E,0.071,,070524,,,A*02638.64367,E,0.071,,070524,,,A*02638.64367,E,0.071,,070524,,,A*02638.64367,E,0.071,,070524,,,A*02638.64367,E,0.071,,070524,,,A*02638.64367,E,0.071,,070524,,,A*02638.64367,E,0.071,,070524,,,A*02638.64367,E,0.071,,070524,,,A*02638.64367,E,0.071,,070524,,,A*02638.64367,E,0.071,,070524,,,A*02638.64367,E,0.071,,070524,,,A*02638.64367,E,0.071,,070524,,,A*02638.64367,E,0.071,,070524,,,A*02638.64367,E,0.071,,070524,,,A*02638.64367,E,0.071,,070524,,,A*02638.64367,E,0.071,,070524,,,A*02638.64367,E,0.071,,070524,,,A*02638.64367,E,0.071,,070524,,,A*02638.64367,E,0.071,,070524,,,A*02638.64367,E,0.071,,070524,,,A*02638.64367,E,0.071,,070524,,,A*02638.64367,E,0.071,,070524,,,A*02638.64367,E,0.071,,070524,,,A*02638.64367,E,0.071,,070524,,,A*02638.64367,E,0.071,,070524,,,A*02638.64367,E,0.071,,070524,,,A*02638.64367,E,0.071,,070524,,,A*02638.64367,E,0.071,,070524,,,A*02638.64367,E,0.071,,070524,,,A*02638.64367,E,0.071,,070524,,,A*02638.64367,E,0.071,,070524,,,A*02638.64367,E,0.071,,070524,,,A*02638.64367,E,0.071,,070524,,,A*02638.64367,E,0.071,,070524,,,A*02638.64367,E,0.071,,070524,,,A*02638.64367,E,0.071,,070524,,,A*02638.64367,E,0.071,,070524,,,A*02638.64367,E,0.071,,070524,,,A*02638.64367,E,0.071,,070524,,,A*02638.64367,E,0.071,,070524,,,A*02638.64367,E,0.071,,070524,,,A*02638.64367,E,0.071,,070524,,,A*02638.64367,E,0.071,,070524,,,A*02638.64367,E,0.071,,070524,,,A*02638.64367,E,0.071,,070524,,,A*02638.64367,E,0.071,,070524,,,A*02638.64367,E,0.071,,070524,,,A*02638.64367,E,0.071,,070524,,,A*02638.64367,E,0.071,,070524,,,A*02638.64367,E,0.071,,070524,,,A*02638.64367,E,0.071,,070524,,,A*02638.64367,E,0.071,,070524,,,A*02638.64367,E,0.071,,070524,,,A*02638.64367,E,0.071,,070524,,,A*02638.64367,E,0.071,,070524,,,A*02638.64367,E,0.071,,070524,,,A*02638.64367,E,0.071,,070524,,,A*02638.64367,E,0.071,,070524,,,A*02638.64367,E,0.071,,070524,,,A*02638.64367,E,0.071,,070524,,,A*02638.64367,E,0.071,,070524,,,A*02638.64367,E,0.071,,070524,,,A*02638.64367,E,0.071,,070524,,,A*02638.64367,E,0.071,,070524,,,A*02638.64367,E,0.071,,070524,,,A*02638.64367,E,0.071,,070524,,,A*02638.64367,E,0.071,,070524,,,A*02638.64367,E,0.071,,070524,,,A*02638.64367,E,0.071,,070524,,,A*02638.64367,E,0.071,,070524,,,A*02638.64367,E,0.071,,070524,,,A*02638.64367,E,0.071,,070524,,,A*02638.64367,E,0.071,,070524,,,A*02638.64367,E,0.071,,070524,,,A*02638.64367,E,0.071,,070524,,,A*02638.64367,E,0.071,,070524,,,A*02638.64367,E,0.071,,070524,,,A*02638.64367,E,0.071,,070524,,,A*02638.64367,E,0.071,,070524,,,A*02638.64367,E,0.071,,070524,,,A*02638.64367,E,0.071,,070524,,,A*02638.64367,E,0.071,,070524,,,A*02638.64367,E,0.071,,070524,,,A*02638.64367,E,0.071,,070524,,,A*02638.64367,E,0.071,,070524,,,A*02638.64367,E,0.071,,070524,,,A*02638.64367,E,0.071,,070524,,,A*02638.64367,E,0.071,,070524,,,A*02638.64367,E,0.071,,070524,,,A*02638.64367,E,0.071,,070524,,,A*02638.64367,E,0.071,,070524,,,A*02638.64367,E,0.071,,070524,,,A*02638.64367,E,0.071,,070524,,,A*02638.64367,E,0.071,,070524,,,A*02638.64367,E,0.071,,070524,,,A*02638.64367,E,0.071,,070524,,,A*02638.64367,E,0.071,,070524,,,A*02638.64367,E,0.071,,070524,,,A*02638.64367,E,0.071,,070524,,,A*02638.64367,E,0.071,,070524,,,A*02638.64367,E,0.071,,070524,,,A*02638.64367,E,0.071,,070524,,,A*02638.64367,E,0.071,,070524,,,A*02638.64367,E,0.071,,070524,,,A*02638.64367,E,0.071,,070524,,,A*02638.64367,E,0.071,,070524,,,A*02638.64367,E,0.071,,070524,,,A*02638.64367,E,0.071,,070524,,,A*02638.64367,E,0.071,,070524,,,A*02638.64367,E,0.071,,070524,,,A*02638.64367,E,0.071,,070524,,,A*02638.64367,E,0.071,,070524,,,A*02638.64367,E,0.071,,070524,,,A*02638.64367,E,0.071,,070524,,,A*02638.64367,E,0.071,,070524,,,A*02638.64367,E,0.071,,070524,,,A*02638.64367,E,0.071,,070524,,,A*02638.64367,E,0.071,,070524,,,A*02638.64367,E,0.071,,070524,,,A*02638.64367,E,0.071,,070524,,,A*02638.64367,E,0.071,,070524,,,A*02638.64367,E,0.071,,070524,,,A*02638.64367,E,0.071,,070524,,,A*02638.64367,E,0.071,,070524,,,A*02638.64367,E,0.071,,070524,,,A*02638.64367,E,0.071,,070524,,,A*02638.64367,E,0.071,,070524,,,A*02638.64367,E,0.071,,070524,,,A*02638.64367,E,0.071,,070524,,,A*02638.64367,E,0.071,,070524,,,A*02638.64367,E,0.071,,070524,,,A*02638.64367,E,0.071,,070524,,,A*02638.64367,E,0.071,,070524,,,A*02638.64367,E,0.071,,070524,,,A*02638.64367,E,0.071,,070524,,,A*02638.64367,E,0.071,,070524,,,A*02638.64367,E,0.071,,070524,,,A*02638.64367,E,0.071,,070524,,,A*02638.64367,E,0.071,,070524,,,A*02638.64367,E,0.071,,070524,,,A*02638.64367,E,0.071,,070524,,,A*02638.64367,E,0.071,,070524,,,A*02638.64367,E,0.071,,070524,,,A*02638.64367,E,0.071,,070524,,,A*02638.64367,E,0.071,,070524,,,A*02638.64367,E,0.071,,070524,,,A*02638.64367,E,0.071,,070524,,,A*02638.64367,E,0.071,,070524,,,A*02638.64367,E,0.071,,070524,,,A*02638.64367,E,0.071,,070524,,,A*02638.64367,E,0.071,,070524,,,A*02638.64367,E,0.071,,070524,,,A*02638.64367,E,0.071,,070524,,,A*02638.64367,E,0.071,,070524,,,A*02638.64367,E,0.071,,070524,,,A*02638.64367,E,0.071,,070524,,,A*02638.64367,E,0.071,,070524,,,A*02638.64367,E,0.071,,070524,,,A*02638.64367,E,0.071,,070524,,,A*02638.64367,E,0.071,,070524,,,A*02638.64367,E,0.071,,070524,,,A*02638.64367,E,0.071,,070524,,,A*02638.64367,E,0.071,,070524,,,A*02638.64367,E,0.071,,070524,,,A*02638.64367,E,0.071,,070524,,,A*02638.64367,E,0.071,,070524,,,A*02638.64367,E,0.071,,070524,,,A*02638.64367,E,0.071,,070524,,,A*02638.64367,E,0.071,,070524,,,A*02638.64367,E,0.071,,070524,,,A*02638.64367,E,0.071,,070524,,,A*02638.64367,E,0.071,,070524,,,A*02638.64367,E,0.071,,070524,,,A*02638.64367,E,0.071,,070524,,,A*02638.64367,E,0.071,,070524,,,A*02638.64367,E,0.071,,070524,,,A*02638.64367,E,0.071,,070524,,,A*02638.64367,E,0.071,,070524,,,A*02638.64367,E,0.071,,070524,,,A*02638.64367,E,0.071,,070524,,,A*02638.64367,E,0.071,,070524,,,A*02638.64367,E,0.071,,070524,,,A*02638.64367,E,0.071,,070524,,,A*02638.64367,E,0.071,,070524,,,A*02638.64367,E,0.071,,070524,,,A*02638.64367,E,0.071,,070524,,,A*02638.64367,E,0.071,,070524,,,A*02638.64367,E,0.071,,070524,,,A*02638.64367,E,0.071,,070524,,,A*02638.64367,E,0.071,,070524,,,A*02638.64367,E,0.071,,070524,,,A*02638.64367,E,0.071,,070524,,,A*02638.64367,E,0.071,,070524,,,A*02638.64367,E,0.071,,070524,,,A*02638.64367,E,0.071,,070524,,,A*02638.64367,E,0.071,,070524,,,A*02638.64367,E,0.071,,070524,,,A*02638.64367,E,0.071,,070524,,,A*02638.64367,E,0.071,,070524,,,A*02638.64367,E,0.071,,070524,,,A*02638.64367,E,0.071,,070524,,,A*02638.64367,E,0.071,,070524,,,A*02638.64367,E,0.071,,070524,,,A*02638.64367,E,0.071,,070524,,,A*02638.64367,E,0.071,,070524,,,A*02638.64367,E,0.071,,070524,,,A*02638.64367,E,0.071,,070524,,,A*02638.64367,E,0.071,,070524,,,A*02638.64367,E,0.071,,070524,,,A*02638.64367,E,0.071,,070524,,,A*02638.64367,E,0.071,,070524,,,A*02638.64367,E,0.071,,070524,,,A*02638.64367,E,0.071,,070524,,,A*02638.64367,E,0.071,,070524,,,A*02638.64367,E,0.071,,070524,,,A*02638.64367,E,0.071,,070524,,,A*02638.64367,E,0.071,,070524,,,A*02638.64367,E,0.071,,070524,,,A*02638.64367,E,0.071,,070524,,,A*02638.64367,E,0.071,,070524,,,A*02638.64367,E,0.071,,070524,,,A*02638.64367,E,0.071,,070524,,,A*02638.64367,E,0.071,,070524,,,A*02638.64367,E,0.071,,070524,,,A*02638.64367,E,0.071,,070524,,,A*02638.64367,E,0.071,,070524,,,A*02638.64367,E,0.071,,070524,,,A*02638.64367,E,0.071,,070524,,,A*02638.64367,E,0.071,,070524,,,A*02638.64367,E,0.071,,070524,,,A*02638.64367,E,0.071,,070524,,,A*02638.64367,E,0.071,,070524,,,A*02638.64367,E,0.071,,070524,,,A*02638.64367,E,0.071,,070524,,,A*02638.64367,E,0.071,,070524,,,A*02638.64367,E,0.071,,070524,,,A*02638.64367,E,0.071,,070524,,,A*02638.64367,E,0.071,,070524,,,A*02638.64367,E,0.071,,070524,,,A*02638.64367,E,0.071,,070524,,,A*02638.64367,E,0.071,,070524,,,A*02638.64367,E,0.071,,070524,,,A*02638.64367,E,0.071,,070524,,,A*02638.64367,E,0.071,,070524,,,A*02638.64367,E,0.071,,070524,,,A*02638.64367,E,0.071,,070524,,,A*02638.64367,E,0.071,,070524,,,A*02638.64367,E,0.071,,070524,,,A*02638.64367,E,0.071,,070524,,,A*02638.64367,E,0.071,,070524,,,A*02638.64367,E,0.071,,070524,,,A*02638.64367,E,0.071,,070524,,,A*02638.64367,E,0.071,,070524,,,A*02638.64367,E,0.071,,070524,,,A*02638.64367,E,0.071,,070524,,,A*02638.64367,E,0.071,,070524,,,A*02638.64367,E,0.071,,070524,,,A*02638.64367,E,0.071,,070524,,,A*02638.64367,E,0.071,,070524,,,A*02638.64367,E,0.071,,070524,,,A*02638.64367,E,0.071,,070524,,,A*02638.64367,E,0.071,,070524,,,A*02638.64367,E,0.071,,070524,,,A*02638.64367,E,0.071,,070524,,,A*02638.64367,E,0.071,,070524,,,A*02638.64367,E,0.071,,070524,,,A*02638.64367,E,0.071,,070524,,,A*02638.64367,E,0.071,,070524,,,A*02638.64367,E,0.071,,070524,,,A*02638.64367,E,0.071,,070524,,,A*02638.64367,E,0.071,,070524,,,A*02638.64367,E,0.071,,070524,,,A*02638.64367,E,0.071,,070524,,,A*02638.64367,E,0.071,,070524,,,A*02638.64367,E,0.071,,070524,,,A*02638.64367,E,0.071,,070524,,,A*02638.64367,E,0.071,,070524,,,A*02638.64367,E,0.071,,070524,,,A*02638.64367,E,0.071,,070524,,,A*02638.64367,E,0.071,,070524,,,A*02638.64367,E,0.071,,070524,,,A*02638.64367,E,0.071,,070524,,,A*02638.64367,E,0.071,,070524,,,A*02638.64367,E,0.071,,070524,,,A*02638.64367,E,0.071,,070524,,,A*02638.64367,E,0.071,,070524,,,A*02638.64367,E,0.071,,070524,,,A*02638.64367,E,0.071,,070524,,,A*02638.64367,E,0.071,,070524,,,A*02638.64367,E,0.071,,070524,,,A*02638.64367,E,0.071,,070524,,,A*02638.64367,E,0.071,,070524,,,A*02638.64367,E,0.071,,070524,,,A*02638.64367,E,0.071,,070524,,,A*02638.64367,E,0.071,,070524,,,A*02638.64367,E,0.071,,070524,,,A*02638.64367,E,0.071,,070524,,,A*02638.64367,E,0.071,,070524,,,A*02638.64367,E,0.071,,070524,,,A*02638.64367,E,0.071,,070524,,,A*02638.64367,E,0.071,,070524,,,A*02638.64367,E,0.071,,070524,,,A*02638.64367,E,0.071,,070524,,,A*02638.64367,E,0.071,,070524,,,A*02638.64367,E,0.071,,070524,,,A*02638.64367,E,0.071,,070524,,,A*02638.64367,E,0.071,,070524,,,A*02638.64367,E,0.071,,070524,,,A*02638.64367,E,0.071,,070524,,,A*02638.64367,E,0.071,,070524,,,A*02638.64367,E,0.071,,070524,,,A*02638.64367,E,0.071,,070524,,,A*02638.64367,E,0.071,,070524,,,A*02638.64367,E,0.071,,070524,,,A*02638.64367,E,0.071,,070524,,,A*02638.64367,E,0.071,,070524,,,A*02638.64367,E,0.071,,070524,,,A*02638.64367,E,0.071,,070524,,,A*02638.64367,E,0.071,,070524,,,A*02638.64367,E,0.071,,070524,,,A*02638.64367,E,0.071,,070524,,,A*02638.64367,E,0.071,,070524,,,A*02638.64367,E,0.071,,070524,,,A*02638.64367,E,0.071,,070524,,,A*02638.64367,E,0.071,,070524,,,A*02638.64367,E,0.071,,070524,,,A*02638.64367,E,0.071,,070524,,,A*02638.64367,E,0.071,,070524,,,A*02638.64367,E,0.071,,070524,,,A*02638.64367,E,0.071,,070524,,,A*02638.64367,E,0.071,,070524,,,A*02638.64367,E,0.071,,070524,,,A*02638.64367,E,0.071,,070524,,,A*7D

[2024-05-07 11:57:46.411603] $GPRMC,085742.00,A,3820.12883,N,02638.64363,E,0.014,,070524,,,A*7F

[2024-05-07 11:57:46.440790] $GPRMC,085743.00,A,3820.12881,N,02638.64359,E,0.040,,070524,,,A*74

[2024-05-07 11:57:46.466445] $GPRMC,085744.00,A,3820.12881,N,02638.64356,E,0.006,,070524,,,A*7E

[2024-05-07 11:57:46.493013] $GPRMC,085745.00,A,3820.12880,N,02638.64354,E,0.017,,070524,,,A*7C

[2024-05-07 11:57:46.519083] $GPRMC,085746.00,A,3820.12880,N,02638.64352,E,0.034,,070524,,,A*78

[2024-05-07 11:57:46.544727] $GPRMC,085747.00,A,3820.12880,N,02638.64350,E,0.072,,070524,,,A*79

[2024-05-07 11:57:46.569278] $GPRMC,085748.00,A,3820.12879,N,02638.64352,E,0.190,,070524,,,A*7F

[2024-05-07 11:57:46.593741] $GPRMC,085749.00,A,3820.12879,N,02638.64352,E,0.041,,070524,,,A*73

[2024-05-07 11:57:47.167770] $GPRMC,085750.00,A,3820.12879,N,02638.64348,E,0.017,,070524,,,A*73

[2024-05-07 11:57:48.171232] $GPRMC,085751.00,A,3820.12878,N,02638.64345,E,0.034,,070524,,,A*7F

[2024-05-07 11:57:49.172650] $GPRMC,085752.00,A,3820.12873,N,02638.64338,E,0.069,,070524,,,A*75

[2024-05-07 11:57:50.167955] $GPRMC,085753.00,A,3820.12869,N,02638.64332,E,0.004,,070524,,,A*7E

[2024-05-07 11:57:51.169751] $GPRMC,085754.00,A,3820.12865,N,02638.64325,E,0.054,,070524,,,A*76

[2024-05-07 11:57:52.169585] $GPRMC,085755.00,A,3820.12864,N,02638.64319,E,0.035,,070524,,,A*7E

[2024-05-07 11:57:53.170544] $GPRMC,085756.00,A,3820.12863,N,02638.64316,E,0.016,,070524,,,A*74

[2024-05-07 11:57:54.164767] $GPRMC,085757.00,A,3820.12864,N,02638.64315,E,0.105,,070524,,,A*72

[2024-05-07 11:57:55.161921] $GPRMC,085758.00,A,3820.12866,N,02638.64316,E,0.142,,070524,,,A*7F

[2024-05-07 11:57:56.162818] $GPRMC,085759.00,A,3820.12875,N,02638.64322,E,0.063,,070524,,,A*79

[2024-05-07 11:57:57.162230] $GPRMC,085800.00,A,3820.12856,N,02638.64328,E,1.405,125.65,070524,,,A*6F

[2024-05-07 11:57:58.162942] $GPRMC,085801.00,A,3820.12779,N,02638.64326,E,3.467,173.47,070524,,,A*67

[2024-05-07 11:57:59.163203] $GPRMC,085802.00,A,3820.12672,N,02638.64353,E,4.175,166.15,070524,,,A*6E

[2024-05-07 11:58:00.164542] $GPRMC,085803.00,A,3820.12573,N,02638.64434,E,4.359,154.49,070524,,,A*6F

[2024-05-07 11:58:01.165000] $GPRMC,085804.00,A,3820.12516,N,02638.64577,E,4.853,137.00,070524,,,A*64

[2024-05-07 11:58:02.163467] $GPRMC,085805.00,A,3820.12486,N,02638.64759,E,5.546,119.24,070524,,,A*61

[2024-05-07 11:58:03.160887] $GPRMC,085806.00,A,3820.12472,N,02638.64974,E,5.802,104.78,070524,,,A*60

[2024-05-07 11:58:04.163684] $GPRMC,085807.00,A,3820.12465,N,02638.65208,E,6.779,97.48,070524,,,A*5E

[2024-05-07 11:58:05.161835] $GPRMC,085808.00,A,3820.12463,N,02638.65451,E,6.707,93.69,070524,,,A*53

[2024-05-07 11:58:06.161775] $GPRMC,085809.00,A,3820.12465,N,02638.65679,E,6.115,92.62,070524,,,A*53

[2024-05-07 11:58:07.163806] $GPRMC,085810.00,A,3820.12473,N,02638.65837,E,4.067,91.60,070524,,,A*5F

[2024-05-07 11:58:08.164444] $GPRMC,085811.00,A,3820.12484,N,02638.65965,E,3.281,89.94,070524,,,A*5F

[2024-05-07 11:58:09.164601] $GPRMC,085812.00,A,3820.12492,N,02638.66072,E,2.702,89.97,070524,,,A*5B

[2024-05-07 11:58:10.163712] $GPRMC,085813.00,A,3820.12493,N,02638.66176,E,2.759,94.15,070524,,,A*56

[2024-05-07 11:58:11.161749] $GPRMC,085814.00,A,3820.12443,N,02638.66291,E,3.851,121.66,070524,,,A*6B

[2024-05-07 11:58:12.163010] $GPRMC,085815.00,A,3820.12331,N,02638.66384,E,5.212,141.65,070524,,,A*63

[2024-05-07 11:58:13.169821] $GPRMC,085816.00,A,3820.12181,N,02638.66461,E,6.149,148.48,070524,,,A*6D

[2024-05-07 11:58:14.173539] $GPRMC,085817.00,A,3820.11958,N,02638.66537,E,8.410,161.87,070524,,,A*6E

[2024-05-07 11:58:15.160896] $GPRMC,085818.00,A,3820.11703,N,02638.66576,E,10.123,166.71,070524,,,A*56

[2024-05-07 11:58:16.161759] $GPRMC,085819.00,A,3820.11405,N,02638.66652,E,11.549,166.59,070524,,,A*54

[2024-05-07 11:58:17.162177] $GPRMC,085820.00,A,3820.11032,N,02638.66780,E,13.776,164.36,070524,,,A*57

[2024-05-07 11:58:18.163683] $GPRMC,085821.00,A,3820.10623,N,02638.66937,E,15.325,162.94,070524,,,A*59

[2024-05-07 11:58:19.161996] $GPRMC,085822.00,A,3820.10199,N,02638.67115,E,15.799,162.09,070524,,,A*52

[2024-05-07 11:58:20.163945] $GPRMC,085823.00,A,3820.09759,N,02638.67298,E,16.559,162.45,070524,,,A*52

[2024-05-07 11:58:21.164451] $GPRMC,085824.00,A,3820.09298,N,02638.67493,E,17.482,162.23,070524,,,A*56

[2024-05-07 11:58:22.164747] $GPRMC,085825.00,A,3820.08811,N,02638.67703,E,18.424,161.98,070524,,,A*57

[2024-05-07 11:58:23.165497] $GPRMC,085826.00,A,3820.08302,N,02638.67923,E,19.222,161.92,070524,,,A*5A

[2024-05-07 11:58:24.163829] $GPRMC,085827.00,A,3820.07783,N,02638.68155,E,19.817,161.05,070524,,,A*5D

[2024-05-07 11:58:25.163766] $GPRMC,085828.00,A,3820.07256,N,02638.68383,E,20.430,161.24,070524,,,A*56

[2024-05-07 11:58:26.164119] $GPRMC,085829.00,A,3820.06713,N,02638.68630,E,20.817,161.12,070524,,,A*53

[2024-05-07 11:58:27.162594] $GPRMC,085830.00,A,3820.06178,N,02638.68853,E,20.070,162.41,070524,,,A*57

[2024-05-07 11:58:28.163968] $GPRMC,085831.00,A,3820.05655,N,02638.69082,E,20.027,160.60,070524,,,A*5B

[2024-05-07 11:58:29.158550] $GPRMC,085832.00,A,3820.05133,N,02638.69328,E,20.081,160.19,070524,,,A*5E

[2024-05-07 11:58:30.167327] $GPRMC,085833.00,A,3820.04610,N,02638.69544,E,19.811,162.75,070524,,,A*57

[2024-05-07 11:58:31.167400] $GPRMC,085834.00,A,3820.04084,N,02638.69731,E,19.574,165.43,070524,,,A*57

[2024-05-07 11:58:32.164125] $GPRMC,085835.00,A,3820.03569,N,02638.69898,E,18.884,166.70,070524,,,A*5B

[2024-05-07 11:58:33.161025] $GPRMC,085836.00,A,3820.03049,N,02638.69998,E,18.761,171.69,070524,,,A*54

[2024-05-07 11:58:34.167334] $GPRMC,085837.00,A,3820.02517,N,02638.70033,E,18.620,177.73,070524,,,A*53

[2024-05-07 11:58:35.162021] $GPRMC,085838.00,A,3820.01996,N,02638.70001,E,18.686,183.32,070524,,,A*59

[2024-05-07 11:58:36.161549] $GPRMC,085839.00,A,3820.01473,N,02638.69860,E,18.707,192.85,070524,,,A*5D

[2024-05-07 11:58:37.161223] $GPRMC,085840.00,A,3820.00993,N,02638.69600,E,18.482,205.77,070524,,,A*57

[2024-05-07 11:58:38.162374] $GPRMC,085841.00,A,3820.00540,N,02638.69259,E,18.960,211.02,070524,,,A*5A

[2024-05-07 11:58:39.162086] $GPRMC,085842.00,A,3820.00116,N,02638.68860,E,19.113,216.75,070524,,,A*55

[2024-05-07 11:58:40.164973] $GPRMC,085843.00,A,3819.99697,N,02638.68395,E,20.277,220.24,070524,,,A*5B

[2024-05-07 11:58:41.163680] $GPRMC,085844.00,A,3819.99272,N,02638.67893,E,21.142,221.75,070524,,,A*50

[2024-05-07 11:58:42.164821] $GPRMC,085845.00,A,3819.98843,N,02638.67358,E,21.918,222.53,070524,,,A*54

[2024-05-07 11:58:43.167396] $GPRMC,085846.00,A,3819.98406,N,02638.66806,E,22.404,223.55,070524,,,A*5F

[2024-05-07 11:58:44.162387] $GPRMC,085847.00,A,3819.97946,N,02638.66251,E,23.169,223.83,070524,,,A*54

[2024-05-07 11:58:45.162402] $GPRMC,085848.00,A,3819.97490,N,02638.65667,E,23.166,222.52,070524,,,A*5D

[2024-05-07 11:58:46.162830] $GPRMC,085849.00,A,3819.97034,N,02638.65095,E,22.949,222.18,070524,,,A*57

[2024-05-07 11:58:47.162556] $GPRMC,085850.00,A,3819.96581,N,02638.64566,E,22.046,223.01,070524,,,A*52

[2024-05-07 11:58:48.164125] $GPRMC,085851.00,A,3819.96156,N,02638.64059,E,20.661,222.67,070524,,,A*54

[2024-05-07 11:58:49.165269] $GPRMC,085852.00,A,3819.95783,N,02638.63603,E,17.797,221.99,070524,,,A*5A

[2024-05-07 11:58:50.164525] $GPRMC,085853.00,A,3819.95454,N,02638.63257,E,14.504,221.03,070524,,,A*5F

[2024-05-07 11:58:51.169448] $GPRMC,085854.00,A,3819.95195,N,02638.62952,E,11.609,221.87,070524,,,A*58

[2024-05-07 11:58:52.164775] $GPRMC,085855.00,A,3819.94999,N,02638.62700,E,9.221,222.81,070524,,,A*67

[2024-05-07 11:58:53.162356] $GPRMC,085856.00,A,3819.94849,N,02638.62532,E,6.585,220.88,070524,,,A*66

[2024-05-07 11:58:54.164692] $GPRMC,085857.00,A,3819.94761,N,02638.62399,E,4.166,220.37,070524,,,A*6A

[2024-05-07 11:58:55.164004] $GPRMC,085858.00,A,3819.94683,N,02638.62296,E,4.000,220.97,070524,,,A*6D

[2024-05-07 11:58:56.162853] $GPRMC,085859.00,A,3819.94572,N,02638.62199,E,4.692,214.75,070524,,,A*6B

[2024-05-07 11:58:57.161428] $GPRMC,085900.00,A,3819.94415,N,02638.62086,E,6.890,212.10,070524,,,A*62

[2024-05-07 11:58:58.162863] $GPRMC,085901.00,A,3819.94234,N,02638.61906,E,8.622,217.45,070524,,,A*68

[2024-05-07 11:58:59.162901] $GPRMC,085902.00,A,3819.94032,N,02638.61687,E,9.738,218.68,070524,,,A*62

[2024-05-07 11:59:00.164835] $GPRMC,085903.00,A,3819.93813,N,02638.61453,E,10.618,220.56,070524,,,A*59

[2024-05-07 11:59:01.162555] $GPRMC,085904.00,A,3819.93614,N,02638.61174,E,10.626,222.94,070524,,,A*56

[2024-05-07 11:59:02.161939] $GPRMC,085905.00,A,3819.93427,N,02638.60905,E,9.861,221.60,070524,,,A*67

[2024-05-07 11:59:03.161594] $GPRMC,085906.00,A,3819.93236,N,02638.60696,E,8.451,217.77,070524,,,A*6A

[2024-05-07 11:59:04.163064] $GPRMC,085907.00,A,3819.93063,N,02638.60538,E,7.167,217.51,070524,,,A*65

[2024-05-07 11:59:05.162243] $GPRMC,085908.00,A,3819.92921,N,02638.60397,E,6.076,218.00,070524,,,A*6C

[2024-05-07 11:59:06.164061] $GPRMC,085909.00,A,3819.92812,N,02638.60215,E,6.005,224.12,070524,,,A*6F

[2024-05-07 11:59:07.164014] $GPRMC,085910.00,A,3819.92693,N,02638.60042,E,6.796,224.84,070524,,,A*62

[2024-05-07 11:59:08.164550] $GPRMC,085911.00,A,3819.92541,N,02638.59842,E,8.900,224.67,070524,,,A*6F

[2024-05-07 11:59:09.164478] $GPRMC,085912.00,A,3819.92330,N,02638.59602,E,10.674,223.52,070524,,,A*52

[2024-05-07 11:59:10.163215] $GPRMC,085913.00,A,3819.92063,N,02638.59365,E,12.191,220.53,070524,,,A*5E

[2024-05-07 11:59:11.161893] $GPRMC,085914.00,A,3819.91794,N,02638.59039,E,13.868,222.50,070524,,,A*50

[2024-05-07 11:59:12.164370] $GPRMC,085915.00,A,3819.91488,N,02638.58666,E,15.708,222.54,070524,,,A*59

[2024-05-07 11:59:13.171222] $GPRMC,085916.00,A,3819.91142,N,02638.58278,E,16.860,220.38,070524,,,A*58

[2024-05-07 11:59:14.175003] $GPRMC,085917.00,A,3819.90773,N,02638.57894,E,17.158,217.40,070524,,,A*53

[2024-05-07 11:59:15.161865] $GPRMC,085918.00,A,3819.90397,N,02638.57481,E,17.608,218.18,070524,,,A*5A

[2024-05-07 11:59:16.165005] $GPRMC,085919.00,A,3819.90001,N,02638.57099,E,17.622,213.64,070524,,,A*52

