[2024-05-07 12:05:57.817522] $GPRMC,172630.00,A,3819.21319,N,02638.42806,E,0.089,,070524,,,A*78

[2024-05-07 12:05:58.816726] $GPRMC,172631.00,A,3819.21321,N,02638.42799,E,0.007,,070524,,,A*7D

[2024-05-07 12:05:59.817432] $GPRMC,172632.00,A,3819.21328,N,02638.42796,E,0.203,,070524,,,A*7E

[2024-05-07 12:06:00.820217] $GPRMC,172633.00,A,3819.21332,N,02638.42799,E,0.121,,070524,,,A*78

[2024-05-07 12:06:01.819878] $GPRMC,172634.00,A,3819.21331,N,02638.42797,E,0.039,,070524,,,A*7A

[2024-05-07 12:06:02.816651] $GPRMC,172635.00,A,3819.21327,N,02638.42794,E,0.020,,070524,,,A*77

[2024-05-07 12:06:03.817701] $GPRMC,172636.00,A,3819.21323,N,02638.42790,E,0.050,,070524,,,A*73

[2024-05-07 12:06:04.819761] $GPRMC,172637.00,A,3819.21338,N,02638.42790,E,0.784,,070524,,,A*76

[2024-05-07 12:06:05.821281] $GPRMC,172638.00,A,3819.21379,N,02638.42793,E,1.917,7.96,070524,,,A*6C

[2024-05-07 12:06:06.816971] $GPRMC,172639.00,A,3819.21445,N,02638.42790,E,2.590,0.38,070524,,,A*65

[2024-05-07 12:06:07.823555] $GPRMC,172640.00,A,3819.21533,N,02638.42772,E,3.069,353.25,070524,,,A*6C

[2024-05-07 12:06:08.817782] $GPRMC,172641.00,A,3819.21632,N,02638.42713,E,3.947,339.17,070524,,,A*60

[2024-05-07 12:06:09.816287] $GPRMC,172642.00,A,3819.21705,N,02638.42590,E,4.554,320.38,070524,,,A*63

[2024-05-07 12:06:10.815476] $GPRMC,172643.00,A,3819.21741,N,02638.42402,E,5.565,288.63,070524,,,A*66

[2024-05-07 12:06:11.816880] $GPRMC,172644.00,A,3819.21756,N,02638.42193,E,6.061,279.48,070524,,,A*6F

[2024-05-07 12:06:12.816804] $GPRMC,172645.00,A,3819.21793,N,02638.41960,E,6.699,278.58,070524,,,A*61

[2024-05-07 12:06:13.822146] $GPRMC,172646.00,A,3819.21829,N,02638.41691,E,7.948,279.27,070524,,,A*66

[2024-05-07 12:06:15.979610] $GPRMC,172647.00,A,3819.21890,N,02638.41387,E,8.686,280.35,070524,,,A*60

[2024-05-07 12:06:16.000195] $GPRMC,172648.00,A,3819.21947,N,02638.41066,E,9.165,279.55,070524,,,A*63

[2024-05-07 12:06:16.814835] $GPRMC,172649.00,A,3819.22009,N,02638.40747,E,8.818,280.51,070524,,,A*67

[2024-05-07 12:06:17.815232] $GPRMC,172650.00,A,3819.22060,N,02638.40445,E,8.233,279.99,070524,,,A*60

[2024-05-07 12:06:18.814836] $GPRMC,172651.00,A,3819.22046,N,02638.40182,E,6.970,270.02,070524,,,A*62

[2024-05-07 12:06:19.816199] $GPRMC,172652.00,A,3819.21970,N,02638.39991,E,6.420,241.89,070524,,,A*63

[2024-05-07 12:06:20.814306] $GPRMC,172653.00,A,3819.21826,N,02638.39837,E,7.195,224.85,070524,,,A*68

[2024-05-07 12:06:21.815103] $GPRMC,172654.00,A,3819.21632,N,02638.39749,E,7.379,207.46,070524,,,A*6C

[2024-05-07 12:06:22.814163] $GPRMC,172655.00,A,3819.21450,N,02638.39661,E,6.653,205.88,070524,,,A*6C

[2024-05-07 12:06:23.815047] $GPRMC,172656.00,A,3819.21330,N,02638.39505,E,5.918,224.41,070524,,,A*6A

[2024-05-07 12:06:24.815087] $GPRMC,172657.00,A,3819.21294,N,02638.39298,E,6.590,245.64,070524,,,A*68

[2024-05-07 12:06:25.833058] $GPRMC,172658.00,A,3819.21325,N,02638.39050,E,7.110,263.61,070524,,,A*66

[2024-05-07 12:06:26.814408] $GPRMC,172659.00,A,3819.21383,N,02638.38736,E,9.356,276.55,070524,,,A*60

[2024-05-07 12:06:27.815019] $GPRMC,172700.00,A,3819.21455,N,02638.38364,E,10.894,281.09,070524,,,A*5E

[2024-05-07 12:06:28.815239] $GPRMC,172701.00,A,3819.21548,N,02638.37965,E,11.672,284.76,070524,,,A*5C

[2024-05-07 12:06:29.817108] $GPRMC,172702.00,A,3819.21631,N,02638.37541,E,12.143,284.02,070524,,,A*5D

[2024-05-07 12:06:30.816390] $GPRMC,172703.00,A,3819.21705,N,02638.37109,E,11.849,283.99,070524,,,A*57

[2024-05-07 12:06:31.820309] $GPRMC,172704.00,A,3819.21747,N,02638.36702,E,11.113,278.96,070524,,,A*57

[2024-05-07 12:06:32.814297] $GPRMC,172705.00,A,3819.21743,N,02638.36280,E,11.634,270.59,070524,,,A*54

[2024-05-07 12:06:33.821308] $GPRMC,172706.00,A,3819.21710,N,02638.35952,E,9.330,265.55,070524,,,A*66

[2024-05-07 12:06:34.821148] $GPRMC,172707.00,A,3819.21667,N,02638.35621,E,9.478,263.65,070524,,,A*63

[2024-05-07 12:06:35.816390] $GPRMC,172708.00,A,3819.21610,N,02638.35359,E,7.046,259.91,070524,,,A*63

[2024-05-07 12:06:36.815081] $GPRMC,172709.00,A,3819.21565,N,02638.35156,E,5.928,257.80,070524,,,A*63

[2024-05-07 12:06:37.820460] $GPRMC,172710.00,A,3819.21567,N,02638.35007,E,3.878,261.90,070524,,,A*6A

[2024-05-07 12:06:38.814299] $GPRMC,172711.00,A,3819.21632,N,02638.34894,E,3.917,281.72,070524,,,A*61

[2024-05-07 12:06:39.814594] $GPRMC,172712.00,A,3819.21729,N,02638.34809,E,5.013,321.87,070524,,,A*67

[2024-05-07 12:06:40.815363] $GPRMC,172713.00,A,3819.21905,N,02638.34817,E,7.040,359.79,070524,,,A*63

[2024-05-07 12:06:41.817182] $GPRMC,172714.00,A,3819.22127,N,02638.34860,E,9.012,9.92,070524,,,A*65

[2024-05-07 12:06:42.817266] $GPRMC,172715.00,A,3819.22383,N,02638.34908,E,11.778,13.13,070524,,,A*67

[2024-05-07 12:06:43.822622] $GPRMC,172716.00,A,3819.22723,N,02638.34988,E,13.647,12.15,070524,,,A*6A

[2024-05-07 12:06:44.815655] $GPRMC,172717.00,A,3819.23113,N,02638.35061,E,15.401,10.67,070524,,,A*61

[2024-05-07 12:06:45.814837] $GPRMC,172718.00,A,3819.23532,N,02638.35158,E,16.176,10.89,070524,,,A*64

[2024-05-07 12:06:46.816274] $GPRMC,172719.00,A,3819.23978,N,02638.35250,E,16.900,9.79,070524,,,A*52

[2024-05-07 12:06:47.818514] $GPRMC,172720.00,A,3819.24440,N,02638.35343,E,18.176,9.51,070524,,,A*57

[2024-05-07 12:06:48.814134] $GPRMC,172721.00,A,3819.24939,N,02638.35420,E,18.643,9.19,070524,,,A*5A

[2024-05-07 12:06:49.815633] $GPRMC,172722.00,A,3819.25447,N,02638.35520,E,19.563,10.28,070524,,,A*67

[2024-05-07 12:06:50.816068] $GPRMC,172723.00,A,3819.25980,N,02638.35640,E,19.831,9.70,070524,,,A*5A

[2024-05-07 12:06:51.816447] $GPRMC,172724.00,A,3819.26509,N,02638.35726,E,19.400,8.74,070524,,,A*59

[2024-05-07 12:06:53.064215] $GPRMC,172725.14,V,,,,,,,070524,,,N*78

