[2024-05-09 14:50:58.847689] $GPRMC,121158.00,V,,,,,,,090524,$GPRMC,121158.00,V,,,,,,,090524,$GPRMC,121158.00,V,,,,,,,090524,$GPRMC,121158.00,V,,,,,,,090524,$GPRMC,121158.00,V,,,,,,,090524,$GPRMC,121158.00,V,,,,,,,090524,$GPRMC,121158.00,V,,,,,,,090524,$GPRMC,121158.00,V,,,,,,,090524
[2024-05-09 14:50:59.856518] $GPRMC,121159.00,V,,,,,,,090524,,,N*78

[2024-05-09 14:51:00.856773] $GPRMC,121200.00,V,,,,,,,090524,,,N*77

[2024-05-09 14:51:01.856066] $GPRMC,121201.00,V,,,,,,,090524,,,N*76

[2024-05-09 14:51:02.855033] $GPRMC,121202.00,V,,,,,,,090524,,,N*75

[2024-05-09 14:51:04.13549] $GPRMC,121203.00,V,,,,,,,090524,,,N*74

[2024-05-09 14:51:04.849114] $GPRMC,121204.00,V,,,,,,,090524,,,N*73

[2024-05-09 14:51:05.853072] $GPRMC,121205.00,V,,,,,,,090524,,,N*72

[2024-05-09 14:51:06.853604] $GPRMC,121206.00,V,,,,,,,090524,,,N*71

[2024-05-09 14:51:07.854934] $GPRMC,121207.00,V,,,,,,,090524,,,N*70

[2024-05-09 14:51:08.456461] $GPRMC,121207.50,V,,,,,,,090524,,,N*75

[2024-05-09 14:51:08.875043] $GPRMC,121208.00,V,,,,,,,090524,,,N*7F

[2024-05-09 14:51:09.872310] $GPRMC,121209.00,V,,,,,,,090524,,,N*7E

[2024-05-09 14:51:10.880486] $GPRMC,121210.00,V,,,,,,,090524,,,N*76

[2024-05-09 14:51:11.874696] $GPRMC,121211.00,V,,,,,,,090524,,,N*77

[2024-05-09 14:51:12.877355] $GPRMC,121212.00,V,,,,,,,090524,,,N*74

[2024-05-09 14:51:13.871886] $GPRMC,121213.00,V,,,,,,,090524,,,N*75

[2024-05-09 14:51:14.872828] $GPRMC,121214.00,V,,,,,,,090524,,,N*72

[2024-05-09 14:51:15.871230] $GPRMC,121215.00,V,,,,,,,090524,,,N*73

[2024-05-09 14:51:16.880260] $GPRMC,121216.00,V,,,,,,,090524,,,N*70

[2024-05-09 14:51:17.873972] $GPRMC,121217.00,V,,,,,,,090524,,,N*71

[2024-05-09 14:51:18.874249] $GPRMC,121218.00,V,,,,,,,090524,,,N*7E

[2024-05-09 14:51:19.876088] $GPRMC,121219.00,V,,,,,,,090524,,,N*7F

[2024-05-09 14:51:20.875409] $GPRMC,121220.00,V,,,,,,,090524,,,N*75

[2024-05-09 14:51:21.516804] $GPRMC,121220.49,V,,,,,,,090524,,,N*78

[2024-05-09 14:51:22.103893] $GPRMC,121221.07,V,,,,,,,090524,,,N*73

[2024-05-09 14:51:22.846368] $GPRMC,121222.00,V,,,,,,,090524,,,N*77

[2024-05-09 14:51:23.846062] $GPRMC,121223.00,V,,,,,,,090524,,,N*76

[2024-05-09 14:51:24.845866] $GPRMC,121224.00,V,,,,,,,090524,,,N*71

[2024-05-09 14:51:25.845630] $GPRMC,121225.00,V,,,,,,,090524,,,N*70

[2024-05-09 14:51:26.845671] $GPRMC,121226.00,V,,,,,,,090524,,,N*73

[2024-05-09 14:51:28.289] $GPRMC,121227.00,V,,,,,,,090524,,,N*72

[2024-05-09 14:51:28.848005] $GPRMC,121228.00,V,,,,,,,090524,,,N*7D

[2024-05-09 14:51:29.852624] $GPRMC,121229.00,V,,,,,,,090524,,,N*7C

[2024-05-09 14:51:30.853191] $GPRMC,121230.00,V,,,,,,,090524,,,N*74

[2024-05-09 14:51:31.857727] $GPRMC,121231.00,V,,,,,,,090524,,,N*75

[2024-05-09 14:51:32.854787] $GPRMC,121232.00,V,,,,,,,090524,,,N*76

[2024-05-09 14:51:34.14218] $GPRMC,121233.00,V,,,,,,,090524,,,N*77

[2024-05-09 14:51:34.854457] $GPRMC,121234.00,V,,,,,,,090524,,,N*70

[2024-05-09 14:51:35.855424] $GPRMC,121235.00,V,,,,,,,090524,,,N*71

[2024-05-09 14:51:36.855139] $GPRMC,121236.00,V,,,,,,,090524,,,N*72

[2024-05-09 14:51:37.854349] $GPRMC,121237.00,V,,,,,,,090524,,,N*73

[2024-05-09 14:51:38.855661] $GPRMC,121238.00,V,,,,,,,090524,,,N*7C

[2024-05-09 14:51:40.21413] $GPRMC,121239.00,V,,,,,,,090524,,,N*7D

[2024-05-09 14:51:40.855804] $GPRMC,121240.00,V,,,,,,,090524,,,N*73

[2024-05-09 14:51:41.963557] $GPRMC,121241.00,V,,,,,,,090524,,,N*72

[2024-05-09 14:51:42.875978] $GPRMC,121242.00,V,,,,,,,090524,,,N*71

[2024-05-09 14:51:43.872787] $GPRMC,121243.00,V,,,,,,,090524,,,N*70

[2024-05-09 14:51:44.875059] $GPRMC,121244.00,V,,,,,,,090524,,,N*77

[2024-05-09 14:51:45.873489] $GPRMC,121245.00,V,,,,,,,090524,,,N*76

[2024-05-09 14:51:46.878721] $GPRMC,121246.00,V,,,,,,,090524,,,N*75

[2024-05-09 14:51:47.871783] $GPRMC,121247.00,V,,,,,,,090524,,,N*74

[2024-05-09 14:51:48.872256] $GPRMC,121248.00,V,,,,,,,090524,,,N*7B

[2024-05-09 14:51:49.875236] $GPRMC,121249.00,V,,,,,,,090524,,,N*7A

[2024-05-09 14:51:50.875426] $GPRMC,121250.00,V,,,,,,,090524,,,N*72

[2024-05-09 14:51:51.872781] $GPRMC,121251.00,V,,,,,,,090524,,,N*73

[2024-05-09 14:51:52.875144] $GPRMC,121252.00,V,,,,,,,090524,,,N*70

[2024-05-09 14:51:53.874602] $GPRMC,121253.00,V,,,,,,,090524,,,N*71

[2024-05-09 14:51:54.873535] $GPRMC,121254.00,V,,,,,,,090524,,,N*76

[2024-05-09 14:51:55.872753] $GPRMC,121255.00,V,,,,,,,090524,,,N*77

[2024-05-09 14:51:56.872775] $GPRMC,121256.00,V,,,,,,,090524,,,N*74

[2024-05-09 14:51:57.872293] $GPRMC,121257.00,V,,,,,,,090524,,,N*75

[2024-05-09 14:51:58.873818] $GPRMC,121258.00,V,,,,,,,090524,,,N*7A

[2024-05-09 14:51:59.875271] $GPRMC,121259.00,V,,,,,,,090524,,,N*7B

[2024-05-09 14:52:00.872569] $GPRMC,121300.00,V,,,,,,,090524,,,N*76

[2024-05-09 14:52:01.875356] $GPRMC,121301.00,V,,,,,,,090524,,,N*77

[2024-05-09 14:52:02.875454] $GPRMC,121302.00,V,,,,,,,090524,,,N*74

[2024-05-09 14:52:03.874772] $GPRMC,121303.00,V,,,,,,,090524,,,N*75

[2024-05-09 14:52:04.874798] $GPRMC,121304.00,V,,,,,,,090524,,,N*72

[2024-05-09 14:52:05.874894] $GPRMC,121305.00,V,,,,,,,090524,,,N*73

[2024-05-09 14:52:06.875869] $GPRMC,121306.00,V,,,,,,,090524,,,N*70

[2024-05-09 14:52:07.875613] $GPRMC,121307.00,V,,,,,,,090524,,,N*71

[2024-05-09 14:52:08.875027] $GPRMC,121308.00,V,,,,,,,090524,,,N*7E

[2024-05-09 14:52:09.877440] $GPRMC,121309.00,V,,,,,,,090524,,,N*7F

[2024-05-09 14:52:10.874623] $GPRMC,121310.00,V,,,,,,,090524,,,N*77

[2024-05-09 14:52:11.876114] $GPRMC,121311.00,V,,,,,,,090524,,,N*76

[2024-05-09 14:52:12.874220] $GPRMC,121312.00,V,,,,,,,090524,,,N*75

[2024-05-09 14:52:13.877479] $GPRMC,121313.00,V,,,,,,,090524,,,N*74

[2024-05-09 14:52:14.876822] $GPRMC,121314.00,V,,,,,,,090524,,,N*73

[2024-05-09 14:52:15.875828] $GPRMC,121315.00,V,,,,,,,090524,,,N*72

[2024-05-09 14:52:16.879642] $GPRMC,121316.00,V,,,,,,,090524,,,N*71

[2024-05-09 14:52:17.872804] $GPRMC,121317.00,V,,,,,,,090524,,,N*70

[2024-05-09 14:52:18.875751] $GPRMC,121318.00,V,,,,,,,090524,,,N*7F

[2024-05-09 14:52:19.875051] $GPRMC,121319.00,V,,,,,,,090524,,,N*7E

[2024-05-09 14:52:20.874930] $GPRMC,121320.00,V,,,,,,,090524,,,N*74

[2024-05-09 14:52:21.874664] $GPRMC,121321.00,V,,,,,,,090524,,,N*75

[2024-05-09 14:52:22.875075] $GPRMC,121322.00,V,,,,,,,090524,,,N*76

[2024-05-09 14:52:23.875966] $GPRMC,121323.00,V,,,,,,,090524,,,N*77

[2024-05-09 14:52:24.875111] $GPRMC,121324.00,V,,,,,,,090524,,,N*70

[2024-05-09 14:52:25.875891] $GPRMC,121325.00,V,,,,,,,090524,,,N*71

[2024-05-09 14:52:26.876655] $GPRMC,121326.00,V,,,,,,,090524,,,N*72

[2024-05-09 14:52:27.876158] $GPRMC,121327.00,V,,,,,,,090524,,,N*73

[2024-05-09 14:52:28.875947] $GPRMC,121328.00,V,,,,,,,090524,,,N*7C

[2024-05-09 14:52:29.878396] $GPRMC,121329.00,V,,,,,,,090524,,,N*7D

[2024-05-09 14:52:30.876635] $GPRMC,121330.00,V,,,,,,,090524,,,N*75

[2024-05-09 14:52:31.878462] $GPRMC,121331.00,V,,,,,,,090524,,,N*74

[2024-05-09 14:52:32.877005] $GPRMC,121332.00,V,,,,,,,090524,,,N*77

[2024-05-09 14:52:33.874270] $GPRMC,121333.00,V,,,,,,,090524,,,N*76

[2024-05-09 14:52:34.876080] $GPRMC,121334.00,V,,,,,,,090524,,,N*71

[2024-05-09 14:52:35.876855] $GPRMC,121335.00,V,,,,,,,090524,,,N*70

[2024-05-09 14:52:36.875210] $GPRMC,121336.00,V,,,,,,,090524,,,N*73

[2024-05-09 14:52:37.877114] $GPRMC,121337.00,V,,,,,,,090524,,,N*72

[2024-05-09 14:52:38.877483] $GPRMC,121338.00,V,,,,,,,090524,,,N*7D

[2024-05-09 14:52:39.876153] $GPRMC,121339.00,V,,,,,,,090524,,,N*7C

[2024-05-09 14:52:40.875764] $GPRMC,121340.00,V,,,,,,,090524,,,N*72

[2024-05-09 14:52:41.879208] $GPRMC,121341.00,V,,,,,,,090524,,,N*73

[2024-05-09 14:52:42.876922] $GPRMC,121342.00,V,,,,,,,090524,,,N*70

[2024-05-09 14:52:43.873290] $GPRMC,121343.00,V,,,,,,,090524,,,N*71

[2024-05-09 14:52:44.875296] $GPRMC,121344.00,V,,,,,,,090524,,,N*76

[2024-05-09 14:52:45.874955] $GPRMC,121345.00,V,,,,,,,090524,,,N*77

[2024-05-09 14:52:46.885599] $GPRMC,121346.00,V,,,,,,,090524,,,N*74

[2024-05-09 14:52:47.876457] $GPRMC,121347.00,V,,,,,,,090524,,,N*75

[2024-05-09 14:52:48.873151] $GPRMC,121348.00,V,,,,,,,090524,,,N*7A

[2024-05-09 14:52:49.876578] $GPRMC,121349.00,V,,,,,,,090524,,,N*7B

[2024-05-09 14:52:50.877243] $GPRMC,121350.00,V,,,,,,,090524,,,N*73

[2024-05-09 14:52:51.877622] $GPRMC,121351.00,V,,,,,,,090524,,,N*72

[2024-05-09 14:52:52.933494] $GPRMC,121352.00,V,,,,,,,090524,,,N*71

[2024-05-09 14:52:53.911645] $GPRMC,121353.00,A,3825.57635,N,02708.07304,E,0.222,,090524,,,A*7C

[2024-05-09 14:52:54.912057] $GPRMC,121354.00,A,3825.57623,N,02708.07279,E,0.143,,090524,,,A*73

[2024-05-09 14:52:55.910094] $GPRMC,121355.00,A,3825.57637,N,02708.07253,E,0.127,,090524,,,A*7D

[2024-05-09 14:52:56.910091] $GPRMC,121356.00,A,3825.57644,N,02708.07291,E,0.253,,090524,,,A*74

[2024-05-09 14:52:57.909521] $GPRMC,121357.00,A,3825.57647,N,02708.07281,E,0.239,,090524,,,A*7B

[2024-05-09 14:52:58.909749] $GPRMC,121358.00,A,3825.57642,N,02708.07308,E,0.330,,090524,,,A*79

[2024-05-09 14:52:59.908735] $GPRMC,121359.00,A,3825.57647,N,02708.07313,E,0.239,,090524,,,A*7F

[2024-05-09 14:53:00.911659] $GPRMC,121400.00,A,3825.57664,N,02708.07255,E,0.048,,090524,,,A*72

[2024-05-09 14:53:01.911656] $GPRMC,121401.00,A,3825.57686,N,02708.07167,E,0.482,,090524,,,A*7F

[2024-05-09 14:53:02.913116] $GPRMC,121402.00,A,3825.57763,N,02708.06804,E,0.553,,090524,,,A*76

[2024-05-09 14:53:03.910554] $GPRMC,121403.00,A,3825.57820,N,02708.06588,E,0.838,,090524,,,A*76

[2024-05-09 14:53:04.912058] $GPRMC,121404.00,A,3825.57888,N,02708.06247,E,0.085,,090524,,,A*79

[2024-05-09 14:53:05.909400] $GPRMC,121405.00,A,3825.57957,N,02708.06114,E,0.376,,090524,,,A*71

[2024-05-09 14:53:06.909664] $GPRMC,121406.00,A,3825.58030,N,02708.05912,E,0.149,,090524,,,A*76

[2024-05-09 14:53:07.870447] $GPRMC,121407.00,V,,,,,,,090524,,,N*76

[2024-05-09 14:53:08.879311] $GPRMC,121408.00,V,,,,,,,090524,,,N*79

[2024-05-09 14:53:09.914731] $GPRMC,121409.00,A,3825.58589,N,02708.06811,E,2.069,89.95,090524,,,A*5D

[2024-05-09 14:53:10.912090] $GPRMC,121410.00,A,3825.58444,N,02708.06436,E,0.759,,090524,,,A*79

[2024-05-09 14:53:11.911189] $GPRMC,121411.00,A,3825.58387,N,02708.06214,E,0.506,,090524,,,A*7E

[2024-05-09 14:53:12.911985] $GPRMC,121412.00,A,3825.58510,N,02708.06537,E,0.574,,090524,,,A*76

[2024-05-09 14:53:13.912900] $GPRMC,121413.00,A,3825.58612,N,02708.06630,E,0.506,,090524,,,A*77

[2024-05-09 14:53:14.909912] $GPRMC,121414.00,A,3825.58505,N,02708.06388,E,5.866,176.22,090524,,,A*63

[2024-05-09 14:53:15.909377] $GPRMC,121415.00,A,3825.58474,N,02708.06224,E,5.029,237.26,090524,,,A*63

[2024-05-09 14:53:16.913238] $GPRMC,121416.00,A,3825.58431,N,02708.06107,E,3.387,,090524,,,A*7E

[2024-05-09 14:53:17.907185] $GPRMC,121417.00,A,3825.58402,N,02708.06020,E,1.666,,090524,,,A*73

[2024-05-09 14:53:18.911484] $GPRMC,121418.00,A,3825.58373,N,02708.05999,E,3.295,246.48,090524,,,A*6D

[2024-05-09 14:53:19.911822] $GPRMC,121419.00,A,3825.58340,N,02708.05874,E,4.284,257.05,090524,,,A*60

[2024-05-09 14:53:20.909417] $GPRMC,121420.00,A,3825.58308,N,02708.05844,E,1.803,,090524,,,A*7E

[2024-05-09 14:53:21.906047] $GPRMC,121421.00,A,3825.58283,N,02708.05835,E,0.804,,090524,,,A*7D

[2024-05-09 14:53:22.911440] $GPRMC,121422.00,A,3825.58246,N,02708.05865,E,0.485,,090524,,,A*77

[2024-05-09 14:53:23.910980] $GPRMC,121423.00,A,3825.58231,N,02708.06004,E,1.080,,090524,,,A*7A

[2024-05-09 14:53:24.911528] $GPRMC,121424.00,A,3825.58226,N,02708.06029,E,0.660,,090524,,,A*7D

[2024-05-09 14:53:25.910402] $GPRMC,121425.00,A,3825.58214,N,02708.06081,E,1.657,,090524,,,A*7A

[2024-05-09 14:53:26.909383] $GPRMC,121426.00,A,3825.58178,N,02708.06116,E,2.093,,090524,,,A*72

[2024-05-09 14:53:27.907350] $GPRMC,121427.00,A,3825.58147,N,02708.06008,E,0.521,,090524,,,A*7F

[2024-05-09 14:53:28.907082] $GPRMC,121428.00,A,3825.58114,N,02708.06013,E,0.891,,090524,,,A*7A

[2024-05-09 14:53:29.909641] $GPRMC,121429.00,A,3825.58132,N,02708.06010,E,0.083,,090524,,,A*77

[2024-05-09 14:53:30.908931] $GPRMC,121430.00,A,3825.58556,N,02708.06392,E,3.436,151.19,090524,,,A*6A

[2024-05-09 14:53:31.908979] $GPRMC,121431.00,A,3825.58764,N,02708.06508,E,3.963,200.87,090524,,,A*60

[2024-05-09 14:53:32.907488] $GPRMC,121432.00,A,3825.58887,N,02708.06350,E,2.888,251.35,090524,,,A*62

[2024-05-09 14:53:33.906638] $GPRMC,121433.00,A,3825.58902,N,02708.06507,E,0.903,,090524,,,A*75

[2024-05-09 14:53:34.907089] $GPRMC,121434.00,A,3825.58883,N,02708.06548,E,1.663,,090524,,,A*79

[2024-05-09 14:53:35.908898] $GPRMC,121435.00,A,3825.58953,N,02708.06494,E,2.043,,090524,,,A*73

[2024-05-09 14:53:36.908492] $GPRMC,121436.00,A,3825.58989,N,02708.06232,E,1.176,,090524,,,A*79

[2024-05-09 14:53:37.906688] $GPRMC,121437.00,A,3825.58967,N,02708.06232,E,0.785,,090524,,,A*73

[2024-05-09 14:53:38.907068] $GPRMC,121438.00,A,3825.58939,N,02708.06161,E,1.324,,090524,,,A*7C

[2024-05-09 14:53:39.907302] $GPRMC,121439.00,A,3825.58922,N,02708.06209,E,1.366,,090524,,,A*7C

[2024-05-09 14:53:40.907235] $GPRMC,121440.00,A,3825.58898,N,02708.06122,E,1.359,,090524,,,A*74

[2024-05-09 14:53:41.907382] $GPRMC,121441.00,A,3825.58882,N,02708.06071,E,2.911,,090524,,,A*7C

[2024-05-09 14:53:42.863145] $GPRMC,121442.00,V,,,,,,,090524,,,N*77

[2024-05-09 14:53:43.860418] $GPRMC,121443.00,V,,,,,,,090524,,,N*76

[2024-05-09 14:53:44.863418] $GPRMC,121444.00,V,,,,,,,090524,,,N*71

[2024-05-09 14:53:45.862178] $GPRMC,121445.00,V,,,,,,,090524,,,N*70

[2024-05-09 14:53:46.860576] $GPRMC,121446.00,V,,,,,,,090524,,,N*73

[2024-05-09 14:53:47.859988] $GPRMC,121447.00,V,,,,,,,090524,,,N*72

[2024-05-09 14:53:48.861785] $GPRMC,121448.00,V,,,,,,,090524,,,N*7D

[2024-05-09 14:53:49.863259] $GPRMC,121449.00,V,,,,,,,090524,,,N*7C

[2024-05-09 14:53:50.863161] $GPRMC,121450.00,V,,,,,,,090524,,,N*74

[2024-05-09 14:53:51.862281] $GPRMC,121451.00,V,,,,,,,090524,,,N*75

[2024-05-09 14:53:52.877526] $GPRMC,121452.00,V,,,,,,,090524,,,N*76

[2024-05-09 14:53:53.879060] $GPRMC,121453.00,V,,,,,,,090524,,,N*77

[2024-05-09 14:53:54.877017] $GPRMC,121454.00,V,,,,,,,090524,,,N*70

[2024-05-09 14:53:55.876284] $GPRMC,121455.00,V,,,,,,,090524,,,N*71

[2024-05-09 14:53:56.877304] $GPRMC,121456.00,V,,,,,,,090524,,,N*72

[2024-05-09 14:53:57.876203] $GPRMC,121457.00,V,,,,,,,090524,,,N*73

[2024-05-09 14:53:58.863022] $GPRMC,121458.00,V,,,,,,,090524,,,N*7C

[2024-05-09 14:53:59.860695] $GPRMC,121459.00,V,,,,,,,090524,,,N*7D

[2024-05-09 14:54:00.861917] $GPRMC,121500.00,V,,,,,,,090524,,,N*70

[2024-05-09 14:54:01.862479] $GPRMC,121501.00,V,,,,,,,090524,,,N*71

[2024-05-09 14:54:02.862519] $GPRMC,121502.00,V,,,,,,,090524,,,N*72

[2024-05-09 14:54:03.862082] $GPRMC,121503.00,V,,,,,,,090524,,,N*73

[2024-05-09 14:54:04.862223] $GPRMC,121504.00,V,,,,,,,090524,,,N*74

[2024-05-09 14:54:05.860806] $GPRMC,121505.00,V,,,,,,,090524,,,N*75

[2024-05-09 14:54:06.863114] $GPRMC,121506.00,V,,,,,,,090524,,,N*76

[2024-05-09 14:54:07.861527] $GPRMC,121507.00,V,,,,,,,090524,,,N*77

[2024-05-09 14:54:08.862152] $GPRMC,121508.00,V,,,,,,,090524,,,N*78

[2024-05-09 14:54:09.862156] $GPRMC,121509.00,V,,,,,,,090524,,,N*79

[2024-05-09 14:54:10.860942] $GPRMC,121510.00,V,,,,,,,090524,,,N*71

[2024-05-09 14:54:11.862218] $GPRMC,121511.00,V,,,,,,,090524,,,N*70

[2024-05-09 14:54:12.863933] $GPRMC,121512.00,V,,,,,,,090524,,,N*73

[2024-05-09 14:54:13.862855] $GPRMC,121513.00,V,,,,,,,090524,,,N*72

[2024-05-09 14:54:14.860743] $GPRMC,121514.00,V,,,,,,,090524,,,N*75

[2024-05-09 14:54:15.860584] $GPRMC,121515.00,V,,,,,,,090524,,,N*74

[2024-05-09 14:54:16.859632] $GPRMC,121516.00,V,,,,,,,090524,,,N*77

[2024-05-09 14:54:17.859448] $GPRMC,121517.00,V,,,,,,,090524,,,N*76

[2024-05-09 14:54:18.860344] $GPRMC,121518.00,V,,,,,,,090524,,,N*79

[2024-05-09 14:54:19.862860] $GPRMC,121519.00,V,,,,,,,090524,,,N*78

[2024-05-09 14:54:20.863748] $GPRMC,121520.00,V,,,,,,,090524,,,N*72

[2024-05-09 14:54:21.862893] $GPRMC,121521.00,V,,,,,,,090524,,,N*73

                                                                                                                                                                                                                                                                                                                                                                                                                                                                                                                                                                                                                     